{"last_updated": "2026-02-04 00:46:36",
  "data":[
  {
    "address": "종로구 숭인동 2-1 ",
    "place_name": "종로센트레빌아파트",
    "lat": "37.58097608298953",
    "lng": "127.01592666275155",
    "date": "20260203"
  },
  {
    "address": "중구 신당동 851 ",
    "place_name": "래미안신당하이베르아파트",
    "lat": "37.56136577190546",
    "lng": "127.02240104277753",
    "date": "20260202"
  },
  {
    "address": "용산구 이태원동 22-2 ",
    "place_name": "청화아파트",
    "lat": "37.529948141682205",
    "lng": "126.99482860733383",
    "date": "20260203"
  },
  {
    "address": "성동구 행당동 347 ",
    "place_name": "행당대림아파트",
    "lat": "37.55790135050871",
    "lng": "127.02711722579186",
    "date": "20260203"
  },
  {
    "address": "광진구 중곡동 699 ",
    "place_name": "하이브III(욱현하이브3)",
    "lat": "37.55456959025796",
    "lng": "127.0878995762279",
    "date": "20260203"
  },
  {
    "address": "동대문구 이문동 149-8 ",
    "place_name": "이문아이파크자이아파트",
    "lat": "37.598186166296394",
    "lng": "127.06346879756117",
    "date": "20260202"
  },
  {
    "address": "중랑구 면목동 172-28 ",
    "place_name": "건영빌라트",
    "lat": "37.5843149612561",
    "lng": "127.079104743924",
    "date": "20260203"
  },
  {
    "address": "성북구 길음동 1280 ",
    "place_name": "길음뉴타운2단지푸르지오아파트",
    "lat": "37.61178635414699",
    "lng": "127.01614615726216",
    "date": "20260203"
  },
  {
    "address": "강북구 미아동 461 ",
    "place_name": "송천센트레빌아파트",
    "lat": "37.61275409943253",
    "lng": "127.025814252461",
    "date": "20260203"
  },
  {
    "address": "도봉구 쌍문동 199-1 ",
    "place_name": "금호1차아파트",
    "lat": "37.65906281952071",
    "lng": "127.03347328400775",
    "date": "20260203"
  },
  {
    "address": "노원구 월계동 322-1 ",
    "place_name": "성원아파트",
    "lat": "37.6294158402081",
    "lng": "127.06251542659837",
    "date": "20260203"
  },
  {
    "address": "은평구 녹번동 281 ",
    "place_name": "북한산푸르지오아파트",
    "lat": "37.60683748279",
    "lng": "126.93654536993654",
    "date": "20260203"
  },
  {
    "address": "서대문구 남가좌동 389 ",
    "place_name": "DMC에코자이아파트",
    "lat": "37.57741217466742",
    "lng": "126.91915917792936",
    "date": "20260203"
  },
  {
    "address": "마포구 망원동 492 ",
    "place_name": "망원동대상4차아파트",
    "lat": "37.556154563249336",
    "lng": "126.90526396061304",
    "date": "20260203"
  },
  {
    "address": "양천구 신정동 1316 ",
    "place_name": "신정이펜하우스3단지아파트",
    "lat": "37.51252061085087",
    "lng": "126.83080330608189",
    "date": "20260203"
  },
  {
    "address": "강서구 화곡동 1165 ",
    "place_name": "강서힐스테이트아파트",
    "lat": "37.54675178573402",
    "lng": "126.84011485946367",
    "date": "20260203"
  },
  {
    "address": "구로구 개봉동 480 ",
    "place_name": "현대홈타운2단지아파트",
    "lat": "37.49161777697712",
    "lng": "126.86162547026112",
    "date": "20260203"
  },
  {
    "address": "금천구 독산동 1155 ",
    "place_name": "금천롯데캐슬골드파크3차아파트",
    "lat": "37.46011751264842",
    "lng": "126.89680518190217",
    "date": "20260203"
  },
  {
    "address": "영등포구 양평동2가 38-1 ",
    "place_name": "양평동삼성래미안아파트",
    "lat": "37.52438923566343",
    "lng": "126.8825465095654",
    "date": "20260203"
  },
  {
    "address": "동작구 사당동 1160 ",
    "place_name": "사당롯데캐슬골든포레아파트",
    "lat": "37.49167204915123",
    "lng": "126.96221982277808",
    "date": "20260203"
  },
  {
    "address": "관악구 신림동 721-2 ",
    "place_name": "건영2차아파트",
    "lat": "37.471447733502025",
    "lng": "126.91744999535703",
    "date": "20260202"
  },
  {
    "address": "서초구 잠원동 42-13 ",
    "place_name": "대우아이빌아파트",
    "lat": "37.51139337574741",
    "lng": "127.01835497289554",
    "date": "20260203"
  },
  {
    "address": "강남구 도곡동 467-6 ",
    "place_name": "대림아크로빌아파트",
    "lat": "37.488119782006144",
    "lng": "127.05107675089604",
    "date": "20260202"
  },
  {
    "address": "송파구 거여동 697 ",
    "place_name": "송파시그니처롯데캐슬아파트",
    "lat": "37.49573061531137",
    "lng": "127.14752149321824",
    "date": "20260203"
  },
  {
    "address": "강동구 성내동 605 ",
    "place_name": "성내동파라디아아파트",
    "lat": "37.53186662783111",
    "lng": "127.12278607897427",
    "date": "20260203"
  }
]
}
