[
  {
    "raw_loc": "(주)참치공방 시청지점(중구 세종대로 64)",
    "name": "(주)참치공방 시청지점",
    "address": "중구 세종대로 64",
    "total_amount": 1995000,
    "visit_count": 15,
    "lat": "37.56195674986522",
    "lng": "126.97720263907202"
  },
  {
    "raw_loc": "민소한우 광화문점(서울 종로구 종로22)",
    "name": "민소한우 광화문점",
    "address": "서울 종로구 종로22",
    "total_amount": 580000,
    "visit_count": 2,
    "lat": "37.56989226590807",
    "lng": "126.9796316537102"
  },
  {
    "raw_loc": "양꼬치구이촨(서울 종로구 무교로 39)",
    "name": "양꼬치구이촨",
    "address": "서울 종로구 무교로 39",
    "total_amount": 168000,
    "visit_count": 1,
    "lat": "37.5694822268236",
    "lng": "126.97913823696"
  },
  {
    "raw_loc": "제주본가(서울 중구 을지로1길 81)",
    "name": "제주본가",
    "address": "서울 중구 을지로1길 81",
    "total_amount": 1539100,
    "visit_count": 16,
    "lat": "37.56644780111534",
    "lng": "126.97987481821227"
  },
  {
    "raw_loc": "주식회사 해피푸드코리아(중구 세종대로21길 65)",
    "name": "주식회사 해피푸드코리아",
    "address": "중구 세종대로21길 65",
    "total_amount": 1796000,
    "visit_count": 13,
    "lat": "37.5691896418797",
    "lng": "126.975676841576"
  },
  {
    "raw_loc": "차이30(CHAI30)(동작구 보라매로5길 15)",
    "name": "차이30(CHAI30)",
    "address": "동작구 보라매로5길 15",
    "total_amount": 746500,
    "visit_count": 4,
    "lat": "37.49200880823848",
    "lng": "126.92425951731944"
  },
  {
    "raw_loc": "브라주카 그릴 (BRAZUCA GRILL)",
    "name": "브라주카 그릴",
    "address": "BRAZUCA GRILL",
    "total_amount": 2185000,
    "visit_count": 22,
    "lat": "37.56761083089322",
    "lng": "126.9789802904269"
  },
  {
    "raw_loc": "이스탄불그릴(ISTANBUL GRILL)",
    "name": "이스탄불그릴",
    "address": "ISTANBUL GRILL",
    "total_amount": 83000,
    "visit_count": 1,
    "lat": "37.54509688369288",
    "lng": "126.94765098208924"
  },
  {
    "raw_loc": "㈜지앤비후르츠(서울 용산구 청파로 349)",
    "name": "㈜지앤비후르츠",
    "address": "서울 용산구 청파로 349",
    "total_amount": 1650500,
    "visit_count": 5,
    "lat": "37.550769973666135",
    "lng": "126.96928780197155"
  },
  {
    "raw_loc": "온점(서울 중구 을지로 29)",
    "name": "온점",
    "address": "서울 중구 을지로 29",
    "total_amount": 461000,
    "visit_count": 2,
    "lat": "37.5664660151051",
    "lng": "126.981047461974"
  },
  {
    "raw_loc": "주식회사행복한구이세상(서울 중구 남대문로9길 24,)",
    "name": "주식회사행복한구이세상",
    "address": "서울 중구 남대문로9길 24,",
    "total_amount": 9345000,
    "visit_count": 56,
    "lat": "37.5671219516984",
    "lng": "126.981119738036"
  },
  {
    "raw_loc": "비비큐(BBQ) 청계광장점(서울특별시 종로구 종로 24-8)",
    "name": "비비큐(BBQ) 청계광장점",
    "address": "서울특별시 종로구 종로 24-8",
    "total_amount": 1072400,
    "visit_count": 6,
    "lat": "37.5694931362568",
    "lng": "126.97969741527"
  },
  {
    "raw_loc": "손가명가(서울 중구 다동길 13)",
    "name": "손가명가",
    "address": "서울 중구 다동길 13",
    "total_amount": 5625000,
    "visit_count": 37,
    "lat": "37.5681345233696",
    "lng": "126.980218469762"
  },
  {
    "raw_loc": "온더보더 광화문D타워점(서울특별시 종로구 종로3길 17)",
    "name": "온더보더 광화문D타워점",
    "address": "서울특별시 종로구 종로3길 17",
    "total_amount": 2290500,
    "visit_count": 14,
    "lat": "37.5705525984893",
    "lng": "126.979076812462"
  },
  {
    "raw_loc": "반포식스 서울시청점(서울특별시 중구 무교로 13)",
    "name": "반포식스 서울시청점",
    "address": "서울특별시 중구 무교로 13",
    "total_amount": 6612275,
    "visit_count": 57,
    "lat": "37.56714862610981",
    "lng": "126.97901437762353"
  },
  {
    "raw_loc": "루드베키아(서울특별시 종로구 세종대로 178)",
    "name": "루드베키아",
    "address": "서울특별시 종로구 세종대로 178",
    "total_amount": 133300,
    "visit_count": 2,
    "lat": "37.57212910870739",
    "lng": "126.9778096791501"
  },
  {
    "raw_loc": "함흥면옥(서울 중구 마른내로 108)",
    "name": "함흥면옥",
    "address": "서울 중구 마른내로 108",
    "total_amount": 369000,
    "visit_count": 7,
    "lat": "37.56427090773028",
    "lng": "126.99987775835788"
  },
  {
    "raw_loc": "행복플러스가게 서울시청점(서울 중구 세종대로 110)",
    "name": "행복플러스가게 서울시청점",
    "address": "서울 중구 세종대로 110",
    "total_amount": 3370000,
    "visit_count": 93,
    "lat": "37.56682420267543",
    "lng": "126.978652258823"
  },
  {
    "raw_loc": "부민옥(서울특별시 중구 다동길 24-12)",
    "name": "부민옥",
    "address": "서울특별시 중구 다동길 24-12",
    "total_amount": 5558000,
    "visit_count": 65,
    "lat": "37.5675038430283",
    "lng": "126.98031824515"
  },
  {
    "raw_loc": "진사댁(서울 중구 명동길 30-1,)",
    "name": "진사댁",
    "address": "서울 중구 명동길 30-1,",
    "total_amount": 466000,
    "visit_count": 2,
    "lat": "37.56346163619549",
    "lng": "126.98404650646167"
  },
  {
    "raw_loc": "주식회사 스케줄코퍼레이션(스케줄 오스테리아)(서울특별시 중구 남대문로 125)",
    "name": "주식회사 스케줄코퍼레이션(스케줄 오스테리아)",
    "address": "서울특별시 중구 남대문로 125",
    "total_amount": 3367500,
    "visit_count": 19,
    "lat": "37.56835018870832",
    "lng": "126.98227965500884"
  },
  {
    "raw_loc": "권명옥 가마솥 나주곰탕(서울 중구 다동길 17,)",
    "name": "권명옥 가마솥 나주곰탕",
    "address": "서울 중구 다동길 17,",
    "total_amount": 2589000,
    "visit_count": 35,
    "lat": "37.5678975775906",
    "lng": "126.980314745785"
  },
  {
    "raw_loc": "바스버거 광화문점(서울특별시 중구 다동길 5)",
    "name": "바스버거 광화문점",
    "address": "서울특별시 중구 다동길 5",
    "total_amount": 3130500,
    "visit_count": 33,
    "lat": "37.5681200190467",
    "lng": "126.979697787969"
  },
  {
    "raw_loc": "일일향 명동점(서울특별시 중구 남대문로 125)",
    "name": "일일향 명동점",
    "address": "서울특별시 중구 남대문로 125",
    "total_amount": 2229000,
    "visit_count": 10,
    "lat": "37.56835018870832",
    "lng": "126.98227965500884"
  },
  {
    "raw_loc": "씨케이코퍼레이션즈 주식회사 루소랩 정동(서울 중구 정동길 17 ,)",
    "name": "씨케이코퍼레이션즈 주식회사 루소랩 정동",
    "address": "서울 중구 정동길 17 ,",
    "total_amount": 825900,
    "visit_count": 11,
    "lat": "37.56703961398295",
    "lng": "126.97060772065376"
  },
  {
    "raw_loc": "명동칼국수(서울특별시 중구 세종대로21길 48)",
    "name": "명동칼국수",
    "address": "서울특별시 중구 세종대로21길 48",
    "total_amount": 224000,
    "visit_count": 5,
    "lat": "37.56857342398243",
    "lng": "126.97598492749657"
  },
  {
    "raw_loc": "헥토_비버웍스(비)(서울 강남구 테헤란로34길 6,)",
    "name": "헥토_비버웍스(비)",
    "address": "서울 강남구 테헤란로34길 6,",
    "total_amount": 798000,
    "visit_count": 11,
    "lat": "37.5009976937241",
    "lng": "127.039835217417"
  },
  {
    "raw_loc": "오징어풍경(서울특별시 중구 다동길 5)",
    "name": "오징어풍경",
    "address": "서울특별시 중구 다동길 5",
    "total_amount": 3965000,
    "visit_count": 34,
    "lat": "37.5681200190467",
    "lng": "126.979697787969"
  },
  {
    "raw_loc": "(주)제스트애프앤씨-종각점(서울특별시 종로구 종로9길 8)",
    "name": "(주)제스트애프앤씨-종각점",
    "address": "서울특별시 종로구 종로9길 8",
    "total_amount": 718000,
    "visit_count": 3,
    "lat": "37.5707155796183",
    "lng": "126.984238525274"
  },
  {
    "raw_loc": "장안삼계탕(서울  중구  태평로2가)",
    "name": "장안삼계탕",
    "address": "서울  중구  태평로2가",
    "total_amount": 5212000,
    "visit_count": 51,
    "lat": "37.5647028748099",
    "lng": "126.976629074232"
  },
  {
    "raw_loc": "참복집(서울 중구 을지로3길 28)",
    "name": "참복집",
    "address": "서울 중구 을지로3길 28",
    "total_amount": 876000,
    "visit_count": 10,
    "lat": "37.567356275775914",
    "lng": "126.98153169548935"
  },
  {
    "raw_loc": "벳남미식 시청직영점(서울특별시 중구 서소문로 115)",
    "name": "벳남미식 시청직영점",
    "address": "서울특별시 중구 서소문로 115",
    "total_amount": 630000,
    "visit_count": 13,
    "lat": "37.56335434904204",
    "lng": "126.97361423867554"
  },
  {
    "raw_loc": "창고43무교점(서울 중구 무교로 21)",
    "name": "창고43무교점",
    "address": "서울 중구 무교로 21",
    "total_amount": 1165000,
    "visit_count": 4,
    "lat": "37.56777030873992",
    "lng": "126.97898930097305"
  },
  {
    "raw_loc": "왕비집(서울 중구 무교로 21)",
    "name": "왕비집",
    "address": "서울 중구 무교로 21",
    "total_amount": 878000,
    "visit_count": 4,
    "lat": "37.56777030873992",
    "lng": "126.97898930097305"
  },
  {
    "raw_loc": "담솥시청점(중구 을지로 6)",
    "name": "담솥시청점",
    "address": "중구 을지로 6",
    "total_amount": 2692000,
    "visit_count": 40,
    "lat": "37.565391694088134",
    "lng": "126.97907146469551"
  },
  {
    "raw_loc": "향만루 중식당( 동대문구 회기로 34)",
    "name": "향만루 중식당",
    "address": " 동대문구 회기로 34",
    "total_amount": 198000,
    "visit_count": 1,
    "lat": "37.5910902407279",
    "lng": "127.040270423924"
  },
  {
    "raw_loc": "등촌샤브칼국수 서소문점(중구 서소문로 115)",
    "name": "등촌샤브칼국수 서소문점",
    "address": "중구 서소문로 115",
    "total_amount": 2202500,
    "visit_count": 29,
    "lat": "37.56335434904204",
    "lng": "126.97361423867554"
  },
  {
    "raw_loc": "카페 아이엠티 시청2청사점(중구 서소문로 124)",
    "name": "카페 아이엠티 시청2청사점",
    "address": "중구 서소문로 124",
    "total_amount": 4507350,
    "visit_count": 56,
    "lat": "37.5631060222994",
    "lng": "126.97522155241"
  },
  {
    "raw_loc": "한성(중구 서소문로11길 8)",
    "name": "한성",
    "address": "중구 서소문로11길 8",
    "total_amount": 1616000,
    "visit_count": 17,
    "lat": "37.563260528947",
    "lng": "126.973098147371"
  },
  {
    "raw_loc": "보라매 궁중삼계탕(동작구 보라매로5길 43)",
    "name": "보라매 궁중삼계탕",
    "address": "동작구 보라매로5길 43",
    "total_amount": 117900,
    "visit_count": 1,
    "lat": "37.49167850482131",
    "lng": "126.92342986531523"
  },
  {
    "raw_loc": "탄백(중구 정동길 37)",
    "name": "탄백",
    "address": "중구 정동길 37",
    "total_amount": 1821000,
    "visit_count": 16,
    "lat": "37.5659660726349",
    "lng": "126.97245652319"
  },
  {
    "raw_loc": "(주) 쌍다리돼지불백(성북구 성북로23길 4)",
    "name": "(주) 쌍다리돼지불백",
    "address": "성북구 성북로23길 4",
    "total_amount": 53000,
    "visit_count": 1,
    "lat": "37.593499076317705",
    "lng": "126.99568816509354"
  },
  {
    "raw_loc": "열빈 (광화문점)",
    "name": "열빈",
    "address": "광화문점",
    "total_amount": 684000,
    "visit_count": 4,
    "lat": "37.5714854611275",
    "lng": "126.976083606404"
  },
  {
    "raw_loc": "주식회사 온센 광화문점 (서울특별시 중구 세종대로 136)",
    "name": "주식회사 온센 광화문점",
    "address": "서울특별시 중구 세종대로 136",
    "total_amount": 821300,
    "visit_count": 13,
    "lat": "37.56842339797618",
    "lng": "126.97825675890313"
  },
  {
    "raw_loc": "대성갈비(서울 성동구 상원1길 26)",
    "name": "대성갈비",
    "address": "서울 성동구 상원1길 26",
    "total_amount": 856000,
    "visit_count": 3,
    "lat": "37.546194169989704",
    "lng": "127.04843220827088"
  },
  {
    "raw_loc": "참숯골 (서울 중구 무교로 16)",
    "name": "참숯골",
    "address": "서울 중구 무교로 16",
    "total_amount": 20340000,
    "visit_count": 140,
    "lat": "37.5673199020013",
    "lng": "126.979507843716"
  },
  {
    "raw_loc": "카페마마스 시청점 (서울특별시 중구 무교로 16)",
    "name": "카페마마스 시청점",
    "address": "서울특별시 중구 무교로 16",
    "total_amount": 5369700,
    "visit_count": 48,
    "lat": "37.5673199020013",
    "lng": "126.979507843716"
  },
  {
    "raw_loc": "남촌회관 (서울특별시 중구 세종대로20길 19)",
    "name": "남촌회관",
    "address": "서울특별시 중구 세종대로20길 19",
    "total_amount": 6263000,
    "visit_count": 26,
    "lat": "37.5671205945224",
    "lng": "126.978455221871"
  },
  {
    "raw_loc": "종로수제비(서울특별시 중구 남대문로9길 16)",
    "name": "종로수제비",
    "address": "서울특별시 중구 남대문로9길 16",
    "total_amount": 510000,
    "visit_count": 7,
    "lat": "37.5668364040155",
    "lng": "126.981549934334"
  },
  {
    "raw_loc": "나마스시(서울 중구 마른내로 144)",
    "name": "나마스시",
    "address": "서울 중구 마른내로 144",
    "total_amount": 198500,
    "visit_count": 1,
    "lat": "37.5645645668718",
    "lng": "127.003938912819"
  },
  {
    "raw_loc": "마케집 (서울시청점서울특별시 중구 다동길 33)",
    "name": "마케집",
    "address": "서울시청점서울특별시 중구 다동길 33",
    "total_amount": 256000,
    "visit_count": 1,
    "lat": "37.5063123425645",
    "lng": "127.024757402157"
  },
  {
    "raw_loc": "주식회사 제이큐코리아(서울 중구 남대문로1길 14-1)",
    "name": "주식회사 제이큐코리아",
    "address": "서울 중구 남대문로1길 14-1",
    "total_amount": 486000,
    "visit_count": 3,
    "lat": "37.561747860109",
    "lng": "126.977947446114"
  },
  {
    "raw_loc": "오는정 (서울 중구 을지로3길 29)",
    "name": "오는정",
    "address": "서울 중구 을지로3길 29",
    "total_amount": 2353000,
    "visit_count": 23,
    "lat": "37.5672985721106",
    "lng": "126.981278161257"
  },
  {
    "raw_loc": "노모어피자 서울시청점(서울특별시 중구 무교로 13)",
    "name": "노모어피자 서울시청점",
    "address": "서울특별시 중구 무교로 13",
    "total_amount": 6374200,
    "visit_count": 30,
    "lat": "37.56714862610981",
    "lng": "126.97901437762353"
  },
  {
    "raw_loc": "더플레이스 광화문 SFC몰점(서울 중구 세종대로 136)",
    "name": "더플레이스 광화문 SFC몰점",
    "address": "서울 중구 세종대로 136",
    "total_amount": 4086620,
    "visit_count": 29,
    "lat": "37.56842339797618",
    "lng": "126.97825675890313"
  },
  {
    "raw_loc": "더플레이스 광화문 SFC몰점(서울 중구 세종대로 136,)",
    "name": "더플레이스 광화문 SFC몰점",
    "address": "서울 중구 세종대로 136,",
    "total_amount": 3273330,
    "visit_count": 21,
    "lat": "37.56842339797618",
    "lng": "126.97825675890313"
  },
  {
    "raw_loc": "디라이프스티일키친(서울특별시 중구 세종대로 136)",
    "name": "디라이프스티일키친",
    "address": "서울특별시 중구 세종대로 136",
    "total_amount": 14653500,
    "visit_count": 97,
    "lat": "37.56842339797618",
    "lng": "126.97825675890313"
  },
  {
    "raw_loc": "청와옥 을지로점(서울특별시 중구 을지로 110)",
    "name": "청와옥 을지로점",
    "address": "서울특별시 중구 을지로 110",
    "total_amount": 81900,
    "visit_count": 2,
    "lat": "37.566014817133464",
    "lng": "126.99005065665251"
  },
  {
    "raw_loc": "띤띤 에스에프씨(SFC)(서울특별시 중구 세종대로 136)",
    "name": "띤띤 에스에프씨(SFC)",
    "address": "서울특별시 중구 세종대로 136",
    "total_amount": 1135500,
    "visit_count": 18,
    "lat": "37.56842339797618",
    "lng": "126.97825675890313"
  },
  {
    "raw_loc": "주식회사 멜팅샵(서울 종로구 종로3길 17,)",
    "name": "주식회사 멜팅샵",
    "address": "서울 종로구 종로3길 17,",
    "total_amount": 3467900,
    "visit_count": 19,
    "lat": "37.5705525984893",
    "lng": "126.979076812462"
  },
  {
    "raw_loc": "라칸티나(서울 중구 을지로 19,)",
    "name": "라칸티나",
    "address": "서울 중구 을지로 19,",
    "total_amount": 13566800,
    "visit_count": 71,
    "lat": "37.56621445453592",
    "lng": "126.97994166288005"
  },
  {
    "raw_loc": "빨강다람쥐 서초 양재시민의숲역점(서울특별시 서초구 동산로 2 .지층1층(양재동))",
    "name": "빨강다람쥐 서초 양재시민의숲역점(서울특별시 서초구 동산로 2 .지층1층",
    "address": "양재동",
    "total_amount": 36000,
    "visit_count": 1,
    "lat": "37.4793685687988",
    "lng": "127.043627021432"
  },
  {
    "raw_loc": "주유별장 광화문점(서울특별시 종로구 종로3길 17)",
    "name": "주유별장 광화문점",
    "address": "서울특별시 종로구 종로3길 17",
    "total_amount": 4514200,
    "visit_count": 31,
    "lat": "37.5705525984893",
    "lng": "126.979076812462"
  },
  {
    "raw_loc": "밀키프레소 종로구청점(서울 종로구 종로3길 38)",
    "name": "밀키프레소 종로구청점",
    "address": "서울 종로구 종로3길 38",
    "total_amount": 87500,
    "visit_count": 1,
    "lat": "37.5720086766211",
    "lng": "126.979474863535"
  },
  {
    "raw_loc": "푸에르코 광화문 (서울특별시 중구 무교로 21)",
    "name": "푸에르코 광화문",
    "address": "서울특별시 중구 무교로 21",
    "total_amount": 20147000,
    "visit_count": 127,
    "lat": "37.56777030873992",
    "lng": "126.97898930097305"
  },
  {
    "raw_loc": "(주)타마린드(서울특별시 종로구 종로3길 17)",
    "name": "(주)타마린드",
    "address": "서울특별시 종로구 종로3길 17",
    "total_amount": 642500,
    "visit_count": 4,
    "lat": "37.5705525984893",
    "lng": "126.979076812462"
  },
  {
    "raw_loc": "(주) 늘솜 (서울 중구 세종대로 136)",
    "name": "(주) 늘솜",
    "address": "서울 중구 세종대로 136",
    "total_amount": 3770500,
    "visit_count": 27,
    "lat": "37.56842339797618",
    "lng": "126.97825675890313"
  },
  {
    "raw_loc": "반갑다 하대포 (서울특별시 중구 을지로3길 26)",
    "name": "반갑다 하대포",
    "address": "서울특별시 중구 을지로3길 26",
    "total_amount": 8504000,
    "visit_count": 38,
    "lat": "37.5671986112352",
    "lng": "126.981593989539"
  },
  {
    "raw_loc": "팔로컴퍼니 주식회사(서울특별시 성동구 서울숲2길 44)",
    "name": "팔로컴퍼니 주식회사",
    "address": "서울특별시 성동구 서울숲2길 44",
    "total_amount": 299600,
    "visit_count": 1,
    "lat": "37.5463024541676",
    "lng": "127.043374047656"
  },
  {
    "raw_loc": "루미호스피탈리티 K-FOOD(서울특별시 강남구 테헤란로 207)",
    "name": "루미호스피탈리티 K-FOOD",
    "address": "서울특별시 강남구 테헤란로 207",
    "total_amount": 462300,
    "visit_count": 3,
    "lat": "37.50167656876364",
    "lng": "127.03857686252603"
  },
  {
    "raw_loc": "(주)강가 (서울 중구 세종대로 136)",
    "name": "(주)강가",
    "address": "서울 중구 세종대로 136",
    "total_amount": 6598700,
    "visit_count": 43,
    "lat": "37.56842339797618",
    "lng": "126.97825675890313"
  },
  {
    "raw_loc": "주식회사 천억에프앤비 (서울특별시 중구 세종대로18길 22)",
    "name": "주식회사 천억에프앤비",
    "address": "서울특별시 중구 세종대로18길 22",
    "total_amount": 5616500,
    "visit_count": 34,
    "lat": "37.56368237783479",
    "lng": "126.97837019083336"
  },
  {
    "raw_loc": "막썰이회(서울특별시 종로구 새문안로 15-1)",
    "name": "막썰이회",
    "address": "서울특별시 종로구 새문안로 15-1",
    "total_amount": 314000,
    "visit_count": 2,
    "lat": "37.567204578707795",
    "lng": "126.96748584418735"
  },
  {
    "raw_loc": "브라주카 그릴 (BRAZUCA GRILL) (서울특별시 중구 무교로 19)",
    "name": "브라주카 그릴 (BRAZUCA GRILL)",
    "address": "서울특별시 중구 무교로 19",
    "total_amount": 7175200,
    "visit_count": 56,
    "lat": "37.567635158577616",
    "lng": "126.97898481126265"
  },
  {
    "raw_loc": "권명옥 가마솥 나주곰탕 (서울 중구 다동길 17)",
    "name": "권명옥 가마솥 나주곰탕",
    "address": "서울 중구 다동길 17",
    "total_amount": 1303000,
    "visit_count": 21,
    "lat": "37.5678975775906",
    "lng": "126.980314745785"
  },
  {
    "raw_loc": "남도장터(전라남도 나주시 빛가람로 685)",
    "name": "남도장터",
    "address": "전라남도 나주시 빛가람로 685",
    "total_amount": 3120180,
    "visit_count": 2,
    "lat": "35.0215133826231",
    "lng": "126.786641755559"
  },
  {
    "raw_loc": "고담2 (서울특별시 중구 세종대로 81)",
    "name": "고담2",
    "address": "서울특별시 중구 세종대로 81",
    "total_amount": 3834500,
    "visit_count": 38,
    "lat": "37.563563976864",
    "lng": "126.976434750726"
  },
  {
    "raw_loc": "몽중헌 페럼타워 (서울 중구 을지로5길 19)",
    "name": "몽중헌 페럼타워",
    "address": "서울 중구 을지로5길 19",
    "total_amount": 556700,
    "visit_count": 2,
    "lat": "37.5669854428328",
    "lng": "126.984126120446"
  },
  {
    "raw_loc": "장군보쌈(서울 중구 무교로 16)",
    "name": "장군보쌈",
    "address": "서울 중구 무교로 16",
    "total_amount": 65000,
    "visit_count": 1,
    "lat": "37.5673199020013",
    "lng": "126.979507843716"
  },
  {
    "raw_loc": "오복수산참치 광화문점(서울특별시 중구 무교로 21)",
    "name": "오복수산참치 광화문점",
    "address": "서울특별시 중구 무교로 21",
    "total_amount": 17783400,
    "visit_count": 101,
    "lat": "37.56777030873992",
    "lng": "126.97898930097305"
  },
  {
    "raw_loc": "브아이피참치 뉴서울호텔점(서울특별시 중구 세종대로22길 16)",
    "name": "브아이피참치 뉴서울호텔점",
    "address": "서울특별시 중구 세종대로22길 16",
    "total_amount": 170000,
    "visit_count": 1,
    "lat": "37.56801523213501",
    "lng": "126.9781765109669"
  },
  {
    "raw_loc": "라칸티나(서울 중구 을지로 19)",
    "name": "라칸티나",
    "address": "서울 중구 을지로 19",
    "total_amount": 14206300,
    "visit_count": 72,
    "lat": "37.56621445453592",
    "lng": "126.97994166288005"
  },
  {
    "raw_loc": "(주)에스씨케이 컴퍼니(서울 강남구 테헤란로 231)",
    "name": "(주)에스씨케이 컴퍼니",
    "address": "서울 강남구 테헤란로 231",
    "total_amount": 1390000,
    "visit_count": 10,
    "lat": "37.50287487023109",
    "lng": "127.04134714989391"
  },
  {
    "raw_loc": "기자클럽 레스토랑(서울특별시 중구 세종대로 124, 한화푸드테크)",
    "name": "기자클럽 레스토랑",
    "address": "서울특별시 중구 세종대로 124, 한화푸드테크",
    "total_amount": 204300,
    "visit_count": 1,
    "lat": "37.5674196175111",
    "lng": "126.977873331603"
  },
  {
    "raw_loc": "스몰하우스 빅도어(서울 중구 남대문로9길 6)",
    "name": "스몰하우스 빅도어",
    "address": "서울 중구 남대문로9길 6",
    "total_amount": 4491500,
    "visit_count": 34,
    "lat": "37.5669418817831",
    "lng": "126.981946075927"
  },
  {
    "raw_loc": "곤트란쉐리에(서울특별시 중구 세종대로22길 16)",
    "name": "곤트란쉐리에",
    "address": "서울특별시 중구 세종대로22길 16",
    "total_amount": 3072880,
    "visit_count": 40,
    "lat": "37.56801523213501",
    "lng": "126.9781765109669"
  },
  {
    "raw_loc": "일품당샤브샤브(서울 종로구 세종대로23길 25)",
    "name": "일품당샤브샤브",
    "address": "서울 종로구 세종대로23길 25",
    "total_amount": 1713300,
    "visit_count": 11,
    "lat": "37.57151047629067",
    "lng": "126.97505576366883"
  },
  {
    "raw_loc": "(주)딘타이펑코리아 명동중앙점(서울 중구 명동7길 13 ,)",
    "name": "(주)딘타이펑코리아 명동중앙점",
    "address": "서울 중구 명동7길 13 ,",
    "total_amount": 1093700,
    "visit_count": 6,
    "lat": "37.56435090898033",
    "lng": "126.9839682179169"
  },
  {
    "raw_loc": "대찬 횟집(서울특별시 종로구 우정국로2길 10)",
    "name": "대찬 횟집",
    "address": "서울특별시 종로구 우정국로2길 10",
    "total_amount": 1671000,
    "visit_count": 6,
    "lat": "37.569369402733706",
    "lng": "126.9835800174258"
  },
  {
    "raw_loc": "우도일식(서울특별시 중구 세종대로 124)",
    "name": "우도일식",
    "address": "서울특별시 중구 세종대로 124",
    "total_amount": 16296000,
    "visit_count": 143,
    "lat": "37.567418716091005",
    "lng": "126.97787106803995"
  },
  {
    "raw_loc": "전설의 우대갈비(서울시청 직영점)(서울특별시 중구 남대문로9길 40)",
    "name": "전설의 우대갈비(서울시청 직영점)",
    "address": "서울특별시 중구 남대문로9길 40",
    "total_amount": 7654500,
    "visit_count": 49,
    "lat": "37.5671398445069",
    "lng": "126.980340979131"
  },
  {
    "raw_loc": "배수사(서울 중구 남대문로9길 12,)",
    "name": "배수사",
    "address": "서울 중구 남대문로9길 12,",
    "total_amount": 6857000,
    "visit_count": 37,
    "lat": "37.5668517526157",
    "lng": "126.981753673644"
  },
  {
    "raw_loc": "(주)강가(서울 중구 세종대로 136,)",
    "name": "(주)강가",
    "address": "서울 중구 세종대로 136,",
    "total_amount": 5784500,
    "visit_count": 40,
    "lat": "37.56842339797618",
    "lng": "126.97825675890313"
  },
  {
    "raw_loc": "신성쇼핑백(서울 중구 통일로92)",
    "name": "신성쇼핑백",
    "address": "서울 중구 통일로92",
    "total_amount": 942720,
    "visit_count": 6,
    "lat": "37.563587542576464",
    "lng": "126.969213497654"
  },
  {
    "raw_loc": "모꼬지(중구 무교로 17-27)",
    "name": "모꼬지",
    "address": "중구 무교로 17-27",
    "total_amount": 215300,
    "visit_count": 4,
    "lat": "37.56745485402543",
    "lng": "126.97840079366806"
  },
  {
    "raw_loc": "남촌회관(중구 세종대로20길 19)",
    "name": "남촌회관",
    "address": "중구 세종대로20길 19",
    "total_amount": 1176000,
    "visit_count": 12,
    "lat": "37.5671205945224",
    "lng": "126.978455221871"
  },
  {
    "raw_loc": "구이구이(서울특별시 중구 을지로 6)",
    "name": "구이구이",
    "address": "서울특별시 중구 을지로 6",
    "total_amount": 15834500,
    "visit_count": 141,
    "lat": "37.565391694088134",
    "lng": "126.97907146469551"
  },
  {
    "raw_loc": "(주)부자되세요 창고43 무교점(서울특별시 중구 무교로 21)",
    "name": "(주)부자되세요 창고43 무교점",
    "address": "서울특별시 중구 무교로 21",
    "total_amount": 10171000,
    "visit_count": 83,
    "lat": "37.56777030873992",
    "lng": "126.97898930097305"
  },
  {
    "raw_loc": "행복플러스가게 서울시청점(중구 세종대로 110)",
    "name": "행복플러스가게 서울시청점",
    "address": "중구 세종대로 110",
    "total_amount": 1699350,
    "visit_count": 47,
    "lat": "37.56682420267543",
    "lng": "126.978652258823"
  },
  {
    "raw_loc": "맘스터치 서울시청점(중구 무교로 12)",
    "name": "맘스터치 서울시청점",
    "address": "중구 무교로 12",
    "total_amount": 1567600,
    "visit_count": 9,
    "lat": "37.5670243525175",
    "lng": "126.979376623271"
  },
  {
    "raw_loc": "이삭토스트(중구 서소문로11길 14)",
    "name": "이삭토스트",
    "address": "중구 서소문로11길 14",
    "total_amount": 152000,
    "visit_count": 1,
    "lat": "37.56344432368287",
    "lng": "126.97306073008279"
  },
  {
    "raw_loc": "열빈 광화문점(중구 세종대로21길 22)",
    "name": "열빈 광화문점",
    "address": "중구 세종대로21길 22",
    "total_amount": 1767000,
    "visit_count": 13,
    "lat": "37.5676291925203",
    "lng": "126.97604409037"
  },
  {
    "raw_loc": "서울시청신매점(중구 세종대로 110)",
    "name": "서울시청신매점",
    "address": "중구 세종대로 110",
    "total_amount": 9876980,
    "visit_count": 33,
    "lat": "37.56682420267543",
    "lng": "126.978652258823"
  },
  {
    "raw_loc": "민소한우(종로구 종로 22)",
    "name": "민소한우",
    "address": "종로구 종로 22",
    "total_amount": 601000,
    "visit_count": 3,
    "lat": "37.56989226590807",
    "lng": "126.9796316537102"
  },
  {
    "raw_loc": "동해수산(중구 무교로 26)",
    "name": "동해수산",
    "address": "중구 무교로 26",
    "total_amount": 77000,
    "visit_count": 1,
    "lat": "37.56825511958712",
    "lng": "126.97941590139651"
  },
  {
    "raw_loc": "창고43 무교점(중구 무교로 21)",
    "name": "창고43 무교점",
    "address": "중구 무교로 21",
    "total_amount": 6567000,
    "visit_count": 49,
    "lat": "37.56777030873992",
    "lng": "126.97898930097305"
  },
  {
    "raw_loc": "더테이블한정식(중구 세종대로 124)",
    "name": "더테이블한정식",
    "address": "중구 세종대로 124",
    "total_amount": 6714000,
    "visit_count": 51,
    "lat": "37.567418716091005",
    "lng": "126.97787106803995"
  },
  {
    "raw_loc": "청기와타운 을지로점(중구 을지로 54)",
    "name": "청기와타운 을지로점",
    "address": "중구 을지로 54",
    "total_amount": 1169000,
    "visit_count": 5,
    "lat": "37.56588796397501",
    "lng": "126.98364416754727"
  },
  {
    "raw_loc": "㈜에스씨케이 컴퍼니(강남구 테헤란로 231)",
    "name": "㈜에스씨케이 컴퍼니",
    "address": "강남구 테헤란로 231",
    "total_amount": 1220000,
    "visit_count": 5,
    "lat": "37.50287487023109",
    "lng": "127.04134714989391"
  },
  {
    "raw_loc": "대가일식(서울특별시 중구 서소문로 101-1)",
    "name": "대가일식",
    "address": "서울특별시 중구 서소문로 101-1",
    "total_amount": 66000,
    "visit_count": 2,
    "lat": "37.562977434485056",
    "lng": "126.972312747033"
  },
  {
    "raw_loc": "삼우정(서울특별시 중구 서소문로 134-12)",
    "name": "삼우정",
    "address": "서울특별시 중구 서소문로 134-12",
    "total_amount": 19218000,
    "visit_count": 134,
    "lat": "37.5632178511819",
    "lng": "126.975728584664"
  },
  {
    "raw_loc": "바닷가수라간(서울특별시 중구 서소문로124)",
    "name": "바닷가수라간",
    "address": "서울특별시 중구 서소문로124",
    "total_amount": 184000,
    "visit_count": 1,
    "lat": "37.5631060222994",
    "lng": "126.97522155241"
  },
  {
    "raw_loc": "서울시청 카페테리아 마루(서울특별시 중구 덕수궁길 15)",
    "name": "서울시청 카페테리아 마루",
    "address": "서울특별시 중구 덕수궁길 15",
    "total_amount": 22400,
    "visit_count": 1,
    "lat": "37.56456211289399",
    "lng": "126.97560817016978"
  },
  {
    "raw_loc": "벌교계절맛집(서울특별시 중랑구 용마산로 713 (신내동))",
    "name": "벌교계절맛집(서울특별시 중랑구 용마산로 713",
    "address": "신내동",
    "total_amount": 69000,
    "visit_count": 1,
    "lat": "37.6160763578179",
    "lng": "127.116463774063"
  },
  {
    "raw_loc": "월매네남원추어탕(서울특별시 중구 서소문로 109-8)",
    "name": "월매네남원추어탕",
    "address": "서울특별시 중구 서소문로 109-8",
    "total_amount": 510000,
    "visit_count": 7,
    "lat": "37.5633254428339",
    "lng": "126.973283747876"
  },
  {
    "raw_loc": "창고43시청점(서울특별시 중구 서소문로 120)",
    "name": "창고43시청점",
    "address": "서울특별시 중구 서소문로 120",
    "total_amount": 8068000,
    "visit_count": 70,
    "lat": "37.56286804397143",
    "lng": "126.97467834524068"
  },
  {
    "raw_loc": "서울시청 매점(서울 중구 덕수궁길 15)",
    "name": "서울시청 매점",
    "address": "서울 중구 덕수궁길 15",
    "total_amount": 221290,
    "visit_count": 8,
    "lat": "37.56456211289399",
    "lng": "126.97560817016978"
  },
  {
    "raw_loc": "롯데쇼핑(서울 중구 남대문로 81)",
    "name": "롯데쇼핑",
    "address": "서울 중구 남대문로 81",
    "total_amount": 105900,
    "visit_count": 2,
    "lat": "37.564905601247865",
    "lng": "126.98175414832635"
  },
  {
    "raw_loc": "비비큐 청계광장점(서울시 종로구 종로 24-8, 김지훈)",
    "name": "비비큐 청계광장점",
    "address": "서울시 종로구 종로 24-8, 김지훈",
    "total_amount": 108000,
    "visit_count": 1,
    "lat": "37.5694931362568",
    "lng": "126.97969741527"
  },
  {
    "raw_loc": "포항집(서울시 중구 서소문로 113-1)",
    "name": "포항집",
    "address": "서울시 중구 서소문로 113-1",
    "total_amount": 589000,
    "visit_count": 5,
    "lat": "37.5632281821709",
    "lng": "126.973492043238"
  },
  {
    "raw_loc": "김가네 까페 (cafe)",
    "name": "김가네 까페",
    "address": "cafe",
    "total_amount": 639000,
    "visit_count": 4,
    "lat": "37.929580549697775",
    "lng": "127.78451211702641"
  },
  {
    "raw_loc": "삼청동 김치찌개(서울 종로구 삼청로11길 19)",
    "name": "삼청동 김치찌개",
    "address": "서울 종로구 삼청로11길 19",
    "total_amount": 121000,
    "visit_count": 2,
    "lat": "37.5885745882435",
    "lng": "126.98089919593303"
  },
  {
    "raw_loc": "멜팅샵(종로구 종로3길 17)",
    "name": "멜팅샵",
    "address": "종로구 종로3길 17",
    "total_amount": 3141650,
    "visit_count": 19,
    "lat": "37.5705525984893",
    "lng": "126.979076812462"
  },
  {
    "raw_loc": "우하나 종각역점(서울 종로구 종로 33)",
    "name": "우하나 종각역점",
    "address": "서울 종로구 종로 33",
    "total_amount": 117000,
    "visit_count": 1,
    "lat": "37.57064312773827",
    "lng": "126.98166105972514"
  },
  {
    "raw_loc": "무교주가 제일제면소(서울 중구 무교로 28)",
    "name": "무교주가 제일제면소",
    "address": "서울 중구 무교로 28",
    "total_amount": 836900,
    "visit_count": 7,
    "lat": "37.5684155064641",
    "lng": "126.979471321818"
  },
  {
    "raw_loc": "명가양갈비(서울 종로구 삼일대로17길 42-1)",
    "name": "명가양갈비",
    "address": "서울 종로구 삼일대로17길 42-1",
    "total_amount": 155000,
    "visit_count": 1,
    "lat": "37.56928490837632",
    "lng": "126.98508099227962"
  },
  {
    "raw_loc": "아맘픽 광화문(서울 중구 세종대로 136)",
    "name": "아맘픽 광화문",
    "address": "서울 중구 세종대로 136",
    "total_amount": 90800,
    "visit_count": 2,
    "lat": "37.56842339797618",
    "lng": "126.97825675890313"
  },
  {
    "raw_loc": "올리페페 광화문점(서울 종로구 청계천로 11)",
    "name": "올리페페 광화문점",
    "address": "서울 종로구 청계천로 11",
    "total_amount": 242500,
    "visit_count": 1,
    "lat": "37.5695074035394",
    "lng": "126.978850715585"
  },
  {
    "raw_loc": "동해수산(서울 중구 동호로35길 27)",
    "name": "동해수산",
    "address": "서울 중구 동호로35길 27",
    "total_amount": 108000,
    "visit_count": 1,
    "lat": "37.5661170475732",
    "lng": "127.00056255181"
  },
  {
    "raw_loc": "만족오향족발 시청점(서울 중구 서소문로 134-7)",
    "name": "만족오향족발 시청점",
    "address": "서울 중구 서소문로 134-7",
    "total_amount": 165000,
    "visit_count": 1,
    "lat": "37.5632575533142",
    "lng": "126.976013798412"
  },
  {
    "raw_loc": "수래연(종로구 세종로 139)",
    "name": "수래연",
    "address": "종로구 세종로 139",
    "total_amount": 150400,
    "visit_count": 2,
    "lat": "37.56954689556668",
    "lng": "126.9780198554159"
  },
  {
    "raw_loc": "붓처스컷 광화문점(서울 중구 세종대로 136)",
    "name": "붓처스컷 광화문점",
    "address": "서울 중구 세종대로 136",
    "total_amount": 7624900,
    "visit_count": 37,
    "lat": "37.56842339797618",
    "lng": "126.97825675890313"
  },
  {
    "raw_loc": "주식회사행복한구이세상 (서울 중구 남대문로9길 24)",
    "name": "주식회사행복한구이세상",
    "address": "서울 중구 남대문로9길 24",
    "total_amount": 8891000,
    "visit_count": 52,
    "lat": "37.5671219516984",
    "lng": "126.981119738036"
  },
  {
    "raw_loc": "박씨화로숯불구이(서울 중구 남대문로1길 26-13)",
    "name": "박씨화로숯불구이",
    "address": "서울 중구 남대문로1길 26-13",
    "total_amount": 2387000,
    "visit_count": 12,
    "lat": "37.56234614375857",
    "lng": "126.97806498091197"
  },
  {
    "raw_loc": "오씨아이드림 주식회사 (서울특별시 중구 소공로 94)",
    "name": "오씨아이드림 주식회사",
    "address": "서울특별시 중구 소공로 94",
    "total_amount": 904700,
    "visit_count": 12,
    "lat": "37.56333675127489",
    "lng": "126.98040988969382"
  },
  {
    "raw_loc": "맨인문 (서울특별시 서대문구 서소문로 27)",
    "name": "맨인문",
    "address": "서울특별시 서대문구 서소문로 27",
    "total_amount": 918000,
    "visit_count": 5,
    "lat": "37.5601697083346",
    "lng": "126.964727297323"
  },
  {
    "raw_loc": "한화푸드테크(주)프레스센터점(서울특별시 중구 세종대로 124)",
    "name": "한화푸드테크(주)프레스센터점",
    "address": "서울특별시 중구 세종대로 124",
    "total_amount": 16723300,
    "visit_count": 130,
    "lat": "37.567418716091005",
    "lng": "126.97787106803995"
  },
  {
    "raw_loc": "시래정각 (서울 중구 퇴계로30길 3-2)",
    "name": "시래정각",
    "address": "서울 중구 퇴계로30길 3-2",
    "total_amount": 30000,
    "visit_count": 1,
    "lat": "37.5606495448888",
    "lng": "126.992199549827"
  },
  {
    "raw_loc": "원조 서린 (서울특별시 종로구 종로 19)",
    "name": "원조 서린",
    "address": "서울특별시 종로구 종로 19",
    "total_amount": 201000,
    "visit_count": 3,
    "lat": "37.5705996041929",
    "lng": "126.97996425815063"
  },
  {
    "raw_loc": "(주)태맥을지점 (서울 중구 을지로3길 34)",
    "name": "(주)태맥을지점",
    "address": "서울 중구 을지로3길 34",
    "total_amount": 1050500,
    "visit_count": 7,
    "lat": "37.567582417554796",
    "lng": "126.98147957146772"
  },
  {
    "raw_loc": "대상해(중구 세종대로 135)",
    "name": "대상해",
    "address": "중구 세종대로 135",
    "total_amount": 4463000,
    "visit_count": 16,
    "lat": "37.56813837281585",
    "lng": "126.97663139666076"
  },
  {
    "raw_loc": "(주)아리연(서울특별시 중구 세종대로12길 12)",
    "name": "(주)아리연",
    "address": "서울특별시 중구 세종대로12길 12",
    "total_amount": 6110900,
    "visit_count": 46,
    "lat": "37.56161791839677",
    "lng": "126.97691073097519"
  },
  {
    "raw_loc": "이나니와요스케(서울 중구 을지로 6)",
    "name": "이나니와요스케",
    "address": "서울 중구 을지로 6",
    "total_amount": 3773500,
    "visit_count": 20,
    "lat": "37.565391694088134",
    "lng": "126.97907146469551"
  },
  {
    "raw_loc": "엔엠에프 시청점(서울특별시 중구 남대문로1길 37)",
    "name": "엔엠에프 시청점",
    "address": "서울특별시 중구 남대문로1길 37",
    "total_amount": 256000,
    "visit_count": 1,
    "lat": "37.56268656054358",
    "lng": "126.97722052618025"
  },
  {
    "raw_loc": "배수사(서울 중구 남대문로9길 12)",
    "name": "배수사",
    "address": "서울 중구 남대문로9길 12",
    "total_amount": 11422000,
    "visit_count": 55,
    "lat": "37.5668517526157",
    "lng": "126.981753673644"
  },
  {
    "raw_loc": "선영이네(서울 중구 을지로3길 30)",
    "name": "선영이네",
    "address": "서울 중구 을지로3길 30",
    "total_amount": 1178000,
    "visit_count": 8,
    "lat": "37.56743826213824",
    "lng": "126.98150450928838"
  },
  {
    "raw_loc": "베스키라빈스 시청역(서울특별시 중구 서소문로 141)",
    "name": "베스키라빈스 시청역",
    "address": "서울특별시 중구 서소문로 141",
    "total_amount": 113700,
    "visit_count": 1,
    "lat": "37.564373037499706",
    "lng": "126.97626471559109"
  },
  {
    "raw_loc": "주식회사 타우너스(서울특별시 중구 을지로 29)",
    "name": "주식회사 타우너스",
    "address": "서울특별시 중구 을지로 29",
    "total_amount": 43000,
    "visit_count": 2,
    "lat": "37.5664660151051",
    "lng": "126.981047461974"
  },
  {
    "raw_loc": "베스킨라빈스 광화문(서울특별시 종로구 종로5길 7)",
    "name": "베스킨라빈스 광화문",
    "address": "서울특별시 종로구 종로5길 7",
    "total_amount": 119400,
    "visit_count": 2,
    "lat": "37.5706465551223",
    "lng": "126.980557394456"
  },
  {
    "raw_loc": "해봉 무교점(서울특별시 중구 청계천로 24)",
    "name": "해봉 무교점",
    "address": "서울특별시 중구 청계천로 24",
    "total_amount": 3667740,
    "visit_count": 16,
    "lat": "37.5685273642809",
    "lng": "126.980259115404"
  },
  {
    "raw_loc": "도레도레 (서울 중구 청계천로 24, 마호가니 광화문)",
    "name": "도레도레",
    "address": "서울 중구 청계천로 24, 마호가니 광화문",
    "total_amount": 35300,
    "visit_count": 1,
    "lat": "37.56857238363754",
    "lng": "126.98007799438244"
  },
  {
    "raw_loc": "팀홀튼 서울시청점(서울특별시 중구 을지로 16)",
    "name": "팀홀튼 서울시청점",
    "address": "서울특별시 중구 을지로 16",
    "total_amount": 200800,
    "visit_count": 5,
    "lat": "37.5656079885064",
    "lng": "126.979386068845"
  },
  {
    "raw_loc": "행복한구이세상(서울 중구 남대문로9길 24)",
    "name": "행복한구이세상",
    "address": "서울 중구 남대문로9길 24",
    "total_amount": 722000,
    "visit_count": 4,
    "lat": "37.5671219516984",
    "lng": "126.981119738036"
  },
  {
    "raw_loc": "빠우 시청점(서울특별시 중구 남대문로9길 40)",
    "name": "빠우 시청점",
    "address": "서울특별시 중구 남대문로9길 40",
    "total_amount": 2835500,
    "visit_count": 28,
    "lat": "37.5671398445069",
    "lng": "126.980340979131"
  },
  {
    "raw_loc": "브아이피참치(서울특별시 중구 세종대로 135)",
    "name": "브아이피참치",
    "address": "서울특별시 중구 세종대로 135",
    "total_amount": 189000,
    "visit_count": 1,
    "lat": "37.56813837281585",
    "lng": "126.97663139666076"
  },
  {
    "raw_loc": "(주)브레댄코 을지로 입구역점(서울특별시 중구 을지로 지하42)",
    "name": "(주)브레댄코 을지로 입구역점",
    "address": "서울특별시 중구 을지로 지하42",
    "total_amount": 108000,
    "visit_count": 2,
    "lat": "37.566035517712955",
    "lng": "126.9821953112953"
  },
  {
    "raw_loc": "베스킨라빈스 시청역(서울특별시 중구 서소문로 141)",
    "name": "베스킨라빈스 시청역",
    "address": "서울특별시 중구 서소문로 141",
    "total_amount": 85200,
    "visit_count": 1,
    "lat": "37.564373037499706",
    "lng": "126.97626471559109"
  },
  {
    "raw_loc": "원주 추어탕(서울 중구 태평로1가 31-20)",
    "name": "원주 추어탕",
    "address": "서울 중구 태평로1가 31-20",
    "total_amount": 1747000,
    "visit_count": 23,
    "lat": "37.56745485402543",
    "lng": "126.97840079366806"
  },
  {
    "raw_loc": "장군보쌈(서울 중구 무교동 19)",
    "name": "장군보쌈",
    "address": "서울 중구 무교동 19",
    "total_amount": 3243000,
    "visit_count": 20,
    "lat": "37.5673199020013",
    "lng": "126.979507843716"
  },
  {
    "raw_loc": "도미노피자서대문점(서울 서대문구 통일로 149-1)",
    "name": "도미노피자서대문점",
    "address": "서울 서대문구 통일로 149-1",
    "total_amount": 2991310,
    "visit_count": 11,
    "lat": "37.5675470383695",
    "lng": "126.964634397478"
  },
  {
    "raw_loc": "왕비집 시청무교점(서울특별시 중구 무교로 19)",
    "name": "왕비집 시청무교점",
    "address": "서울특별시 중구 무교로 19",
    "total_amount": 8637000,
    "visit_count": 78,
    "lat": "37.567635158577616",
    "lng": "126.97898481126265"
  },
  {
    "raw_loc": "남포면옥(서울 중구 을지로3길 24)",
    "name": "남포면옥",
    "address": "서울 중구 을지로3길 24",
    "total_amount": 7500200,
    "visit_count": 53,
    "lat": "37.5671652991647",
    "lng": "126.981753597164"
  },
  {
    "raw_loc": "온점 을지로점(서울특별시 중구 을지로 29)",
    "name": "온점 을지로점",
    "address": "서울특별시 중구 을지로 29",
    "total_amount": 7663000,
    "visit_count": 40,
    "lat": "37.5664660151051",
    "lng": "126.981047461974"
  },
  {
    "raw_loc": "쌤쌤쌤 광화문점(서울특별시 종로구 종로3길 17)",
    "name": "쌤쌤쌤 광화문점",
    "address": "서울특별시 종로구 종로3길 17",
    "total_amount": 564000,
    "visit_count": 4,
    "lat": "37.5705525984893",
    "lng": "126.979076812462"
  },
  {
    "raw_loc": "스패뉴시청지점(서울 중구 태평로2가)",
    "name": "스패뉴시청지점",
    "address": "서울 중구 태평로2가",
    "total_amount": 561600,
    "visit_count": 5,
    "lat": "37.5647028748099",
    "lng": "126.976629074232"
  },
  {
    "raw_loc": "무교소호정(서울 중구 무교로 17-25)",
    "name": "무교소호정",
    "address": "서울 중구 무교로 17-25",
    "total_amount": 17776000,
    "visit_count": 120,
    "lat": "37.56744047047224",
    "lng": "126.97857850847534"
  },
  {
    "raw_loc": "영덕회식당 시청점(서울특별시 중구 무교로 32)",
    "name": "영덕회식당 시청점",
    "address": "서울특별시 중구 무교로 32",
    "total_amount": 2336000,
    "visit_count": 28,
    "lat": "37.5687651100268",
    "lng": "126.979570836153"
  },
  {
    "raw_loc": "(주)에스씨케이 컴퍼니 (서울 중구 무교로 21)",
    "name": "(주)에스씨케이 컴퍼니",
    "address": "서울 중구 무교로 21",
    "total_amount": 540000,
    "visit_count": 3,
    "lat": "37.56777030873992",
    "lng": "126.97898930097305"
  },
  {
    "raw_loc": "덕수궁 리에제 와플(서울 중구 덕수궁길 5)",
    "name": "덕수궁 리에제 와플",
    "address": "서울 중구 덕수궁길 5",
    "total_amount": 383700,
    "visit_count": 2,
    "lat": "37.5647929393394",
    "lng": "126.976452473606"
  },
  {
    "raw_loc": "주식회사 멜팅샵(서울 종로구 종로3길 17)",
    "name": "주식회사 멜팅샵",
    "address": "서울 종로구 종로3길 17",
    "total_amount": 2457000,
    "visit_count": 19,
    "lat": "37.5705525984893",
    "lng": "126.979076812462"
  },
  {
    "raw_loc": "주식회사 보원에프앤비(서울특별시 중구 세종대로 8)",
    "name": "주식회사 보원에프앤비",
    "address": "서울특별시 중구 세종대로 8",
    "total_amount": 10450000,
    "visit_count": 72,
    "lat": "37.5575050535703",
    "lng": "126.973507651923"
  },
  {
    "raw_loc": "산채향(서울 중구 무교동 96번지)",
    "name": "산채향",
    "address": "서울 중구 무교동 96번지",
    "total_amount": 356360,
    "visit_count": 1,
    "lat": "37.5688657442589",
    "lng": "126.978026847197"
  },
  {
    "raw_loc": "육미곳간(서울특별시 중구 다동길 16)",
    "name": "육미곳간",
    "address": "서울특별시 중구 다동길 16",
    "total_amount": 15274200,
    "visit_count": 94,
    "lat": "37.5677642128177",
    "lng": "126.98021064425191"
  },
  {
    "raw_loc": "남산복집(서울 중구 무교동)",
    "name": "남산복집",
    "address": "서울 중구 무교동",
    "total_amount": 1405000,
    "visit_count": 11,
    "lat": "37.5670495827722",
    "lng": "126.979390199224"
  },
  {
    "raw_loc": "서울시청매점(중구 덕수궁길 15)",
    "name": "서울시청매점",
    "address": "중구 덕수궁길 15",
    "total_amount": 24831050,
    "visit_count": 64,
    "lat": "37.56456211289399",
    "lng": "126.97560817016978"
  },
  {
    "raw_loc": "월매네남원추어탕(중구 서소문로 109-8)",
    "name": "월매네남원추어탕",
    "address": "중구 서소문로 109-8",
    "total_amount": 5852260,
    "visit_count": 85,
    "lat": "37.5633254428339",
    "lng": "126.973283747876"
  },
  {
    "raw_loc": "주식회사 젤코바홀딩스(중구 덕수궁길 114)",
    "name": "주식회사 젤코바홀딩스",
    "address": "중구 덕수궁길 114",
    "total_amount": 24000,
    "visit_count": 1,
    "lat": "37.5678504422217",
    "lng": "126.974169558021"
  },
  {
    "raw_loc": "보원(중구 남대문로1길)",
    "name": "보원",
    "address": "중구 남대문로1길",
    "total_amount": 80000,
    "visit_count": 1,
    "lat": "37.56259825108099",
    "lng": "126.97715943361476"
  },
  {
    "raw_loc": "창고(서울시 중구 서소문로120 1층, 송호섭)",
    "name": "창고",
    "address": "서울시 중구 서소문로120 1층, 송호섭",
    "total_amount": 469000,
    "visit_count": 2,
    "lat": "37.54171994709006",
    "lng": "127.05624815815919"
  },
  {
    "raw_loc": "평가옥(서울시 종로구 새문안로5길 19, 로얄빌딩 지하1층, 박민)",
    "name": "평가옥",
    "address": "서울시 종로구 새문안로5길 19, 로얄빌딩 지하1층, 박민",
    "total_amount": 200000,
    "visit_count": 1,
    "lat": "37.50700409947946",
    "lng": "127.05284266713628"
  },
  {
    "raw_loc": "도치피자(서울시 중구 세종대로21길 67-2 정동, 도중필)",
    "name": "도치피자",
    "address": "서울시 중구 세종대로21길 67-2 정동, 도중필",
    "total_amount": 118300,
    "visit_count": 1,
    "lat": "37.5009936710604",
    "lng": "127.028883471736"
  },
  {
    "raw_loc": " 차이797(서울시 중구 서소문로 120 서소문동, 손원현)",
    "name": "차이797",
    "address": "서울시 중구 서소문로 120 서소문동, 손원현",
    "total_amount": 70000,
    "visit_count": 1,
    "lat": "37.4928950164823",
    "lng": "126.991111997844"
  },
  {
    "raw_loc": "태산(서울시 중구 세종대로11길 47 1층,2층, 이동희)",
    "name": "태산",
    "address": "서울시 중구 세종대로11길 47 1층,2층, 이동희",
    "total_amount": 150000,
    "visit_count": 1,
    "lat": "36.0385429699335",
    "lng": "128.795176995037"
  },
  {
    "raw_loc": "뚜레쥬르 무교점(중구 남대문로9길 40)",
    "name": "뚜레쥬르 무교점",
    "address": "중구 남대문로9길 40",
    "total_amount": 2569700,
    "visit_count": 25,
    "lat": "37.5671398445069",
    "lng": "126.980340979131"
  },
  {
    "raw_loc": "브이아이피참치프레지던트호텔점(중구 을지로 16)",
    "name": "브이아이피참치프레지던트호텔점",
    "address": "중구 을지로 16",
    "total_amount": 4060000,
    "visit_count": 30,
    "lat": "37.5656079885064",
    "lng": "126.979386068845"
  },
  {
    "raw_loc": "차이797(중구 세종대로 136)",
    "name": "차이797",
    "address": "중구 세종대로 136",
    "total_amount": 1616460,
    "visit_count": 12,
    "lat": "37.56842339797618",
    "lng": "126.97825675890313"
  },
  {
    "raw_loc": "이테르(중구 남대문로5길 39)",
    "name": "이테르",
    "address": "중구 남대문로5길 39",
    "total_amount": 575000,
    "visit_count": 4,
    "lat": "37.5632157101453",
    "lng": "126.978636310756"
  },
  {
    "raw_loc": "리나스 무교점(중구 무교로 19)",
    "name": "리나스 무교점",
    "address": "중구 무교로 19",
    "total_amount": 1606600,
    "visit_count": 19,
    "lat": "37.567635158577616",
    "lng": "126.97898481126265"
  },
  {
    "raw_loc": "종로은행나무시청집(중구 세종대로22길 12)",
    "name": "종로은행나무시청집",
    "address": "중구 세종대로22길 12",
    "total_amount": 90000,
    "visit_count": 1,
    "lat": "37.56794131053337",
    "lng": "126.97796146724511"
  },
  {
    "raw_loc": "오미(중구 서소문로11길 19)",
    "name": "오미",
    "address": "중구 서소문로11길 19",
    "total_amount": 510000,
    "visit_count": 7,
    "lat": "37.5634730116158",
    "lng": "126.972437067674"
  },
  {
    "raw_loc": "(주)늘솜(중구 세종대로 136)",
    "name": "(주)늘솜",
    "address": "중구 세종대로 136",
    "total_amount": 231500,
    "visit_count": 2,
    "lat": "37.56842339797618",
    "lng": "126.97825675890313"
  },
  {
    "raw_loc": "종로은행나무집시청점(중구 세종대로22길 12)",
    "name": "종로은행나무집시청점",
    "address": "중구 세종대로22길 12",
    "total_amount": 741500,
    "visit_count": 6,
    "lat": "37.56794131053337",
    "lng": "126.97796146724511"
  },
  {
    "raw_loc": "창고43(중구 서소문로 120)",
    "name": "창고43",
    "address": "중구 서소문로 120",
    "total_amount": 7769000,
    "visit_count": 68,
    "lat": "37.56286804397143",
    "lng": "126.97467834524068"
  },
  {
    "raw_loc": "올리페페광화문점(종로구 청계천로 11)",
    "name": "올리페페광화문점",
    "address": "종로구 청계천로 11",
    "total_amount": 514000,
    "visit_count": 3,
    "lat": "37.5695074035394",
    "lng": "126.978850715585"
  },
  {
    "raw_loc": "메가엠지씨커피 서울시청후문점(중구 세종대로 20길 23)",
    "name": "메가엠지씨커피 서울시청후문점",
    "address": "중구 세종대로 20길 23",
    "total_amount": 100000,
    "visit_count": 1,
    "lat": "37.56715217903943",
    "lng": "126.97872913514755"
  },
  {
    "raw_loc": "(주)파피루스 오피스알파(중구 세종대로20길 15)",
    "name": "(주)파피루스 오피스알파",
    "address": "중구 세종대로20길 15",
    "total_amount": 399840,
    "visit_count": 1,
    "lat": "37.5672331962082",
    "lng": "126.978330679136"
  },
  {
    "raw_loc": "루원광화문점(종로구 종로 33)",
    "name": "루원광화문점",
    "address": "종로구 종로 33",
    "total_amount": 75000,
    "visit_count": 1,
    "lat": "37.57064312773827",
    "lng": "126.98166105972514"
  },
  {
    "raw_loc": "더샌드위치샵(서울특별시 중구 서소문로115)",
    "name": "더샌드위치샵",
    "address": "서울특별시 중구 서소문로115",
    "total_amount": 312000,
    "visit_count": 1,
    "lat": "37.56335434904204",
    "lng": "126.97361423867554"
  },
  {
    "raw_loc": "브이아이피참치 뉴서울호텔점(서울특별시 중구 세종대로22길 16)",
    "name": "브이아이피참치 뉴서울호텔점",
    "address": "서울특별시 중구 세종대로22길 16",
    "total_amount": 8661000,
    "visit_count": 67,
    "lat": "37.56801523213501",
    "lng": "126.9781765109669"
  },
  {
    "raw_loc": "주식회사 시안컴퍼니(서울특별시 중구 서소문로 116)",
    "name": "주식회사 시안컴퍼니",
    "address": "서울특별시 중구 서소문로 116",
    "total_amount": 1816290,
    "visit_count": 15,
    "lat": "37.56273184964519",
    "lng": "126.97401626274653"
  },
  {
    "raw_loc": "파리바게뜨서소문(서울 중구 서소문로 129)",
    "name": "파리바게뜨서소문",
    "address": "서울 중구 서소문로 129",
    "total_amount": 2095150,
    "visit_count": 13,
    "lat": "37.5637970872019",
    "lng": "126.975224719106"
  },
  {
    "raw_loc": "써브웨이 시청점(서울특별시 중구 세종대로 68)",
    "name": "써브웨이 시청점",
    "address": "서울특별시 중구 세종대로 68",
    "total_amount": 1020600,
    "visit_count": 4,
    "lat": "37.5622737806049",
    "lng": "126.976589086915"
  },
  {
    "raw_loc": "오토김밥(중구점) (서울특별시 중구 서소문로9길 28)",
    "name": "오토김밥(중구점)",
    "address": "서울특별시 중구 서소문로9길 28",
    "total_amount": 184000,
    "visit_count": 1,
    "lat": "37.56361935920111",
    "lng": "126.97031364971919"
  },
  {
    "raw_loc": "부산갈비(서울  중구  오장동)",
    "name": "부산갈비",
    "address": "서울  중구  오장동",
    "total_amount": 75000,
    "visit_count": 1,
    "lat": "37.56427090773028",
    "lng": "126.99987775835788"
  },
  {
    "raw_loc": "주식회사 에스씨케이컴퍼니(서울 강남구 테헤란로 231)",
    "name": "주식회사 에스씨케이컴퍼니",
    "address": "서울 강남구 테헤란로 231",
    "total_amount": 1449800,
    "visit_count": 37,
    "lat": "37.50287487023109",
    "lng": "127.04134714989391"
  },
  {
    "raw_loc": "가마솥 순대국밥 노원역점(서울특별시 노원구 노해로 456)",
    "name": "가마솥 순대국밥 노원역점",
    "address": "서울특별시 노원구 노해로 456",
    "total_amount": 48000,
    "visit_count": 1,
    "lat": "37.6535875573238",
    "lng": "127.05879832171"
  },
  {
    "raw_loc": "자연밥상(서울  강서구  까치산로17길  36)",
    "name": "자연밥상",
    "address": "서울  강서구  까치산로17길  36",
    "total_amount": 62000,
    "visit_count": 1,
    "lat": "37.54897111230181",
    "lng": "126.84844121289258"
  },
  {
    "raw_loc": "초록상어(서울특별시 동작구 상도로26길 14)",
    "name": "초록상어",
    "address": "서울특별시 동작구 상도로26길 14",
    "total_amount": 33500,
    "visit_count": 1,
    "lat": "37.5038320569332",
    "lng": "126.938657057435"
  },
  {
    "raw_loc": "반가온(서울 성동구 왕십리로24길 14)",
    "name": "반가온",
    "address": "서울 성동구 왕십리로24길 14",
    "total_amount": 85000,
    "visit_count": 1,
    "lat": "37.5636586617607",
    "lng": "127.034272653472"
  },
  {
    "raw_loc": "종로은행나무집시청점(서울특별시 중구 세종대로22길 12)",
    "name": "종로은행나무집시청점",
    "address": "서울특별시 중구 세종대로22길 12",
    "total_amount": 2396200,
    "visit_count": 14,
    "lat": "37.56794131053337",
    "lng": "126.97796146724511"
  },
  {
    "raw_loc": "설가온(서울  종로구  세종로)",
    "name": "설가온",
    "address": "서울  종로구  세종로",
    "total_amount": 192000,
    "visit_count": 1,
    "lat": "37.577613288258206",
    "lng": "126.97689786832184"
  },
  {
    "raw_loc": "오륙도(중구 을지로3길 20)",
    "name": "오륙도",
    "address": "중구 을지로3길 20",
    "total_amount": 2897000,
    "visit_count": 22,
    "lat": "37.5670103208777",
    "lng": "126.981708358627"
  },
  {
    "raw_loc": "오복수산참치 광화문점(중구 무교로 21)",
    "name": "오복수산참치 광화문점",
    "address": "중구 무교로 21",
    "total_amount": 7055000,
    "visit_count": 58,
    "lat": "37.56777030873992",
    "lng": "126.97898930097305"
  },
  {
    "raw_loc": "곰국시집(중구 무교로 24)",
    "name": "곰국시집",
    "address": "중구 무교로 24",
    "total_amount": 8383600,
    "visit_count": 78,
    "lat": "37.5680523955613",
    "lng": "126.9794159571831"
  },
  {
    "raw_loc": "오제제 광화문점(서울 중구 세종대로 136)",
    "name": "오제제 광화문점",
    "address": "서울 중구 세종대로 136",
    "total_amount": 347000,
    "visit_count": 4,
    "lat": "37.56842339797618",
    "lng": "126.97825675890313"
  },
  {
    "raw_loc": "대보정시청역점(서울특별시 중구 세종대로9길 41)",
    "name": "대보정시청역점",
    "address": "서울특별시 중구 세종대로9길 41",
    "total_amount": 478000,
    "visit_count": 5,
    "lat": "37.5612026084068",
    "lng": "126.97290421418"
  },
  {
    "raw_loc": "이빠네그릴(서울 서대문구 연세로4길 6)",
    "name": "이빠네그릴",
    "address": "서울 서대문구 연세로4길 6",
    "total_amount": 129000,
    "visit_count": 1,
    "lat": "37.55690756184408",
    "lng": "126.93735732674016"
  },
  {
    "raw_loc": "VIP참치 프레지던트점(중구 을지로 16)",
    "name": "VIP참치 프레지던트점",
    "address": "중구 을지로 16",
    "total_amount": 326000,
    "visit_count": 2,
    "lat": "37.5656079885064",
    "lng": "126.979386068845"
  },
  {
    "raw_loc": "곰솔(서울 종로구 자하문로8길 9)",
    "name": "곰솔",
    "address": "서울 종로구 자하문로8길 9",
    "total_amount": 1348000,
    "visit_count": 8,
    "lat": "37.5787754236654",
    "lng": "126.972051046729"
  },
  {
    "raw_loc": "열빈(중구 세종대로21길 22)",
    "name": "열빈",
    "address": "중구 세종대로21길 22",
    "total_amount": 2963000,
    "visit_count": 19,
    "lat": "37.5676291925203",
    "lng": "126.97604409037"
  },
  {
    "raw_loc": "연타발(중구 남대문로9길 24)",
    "name": "연타발",
    "address": "중구 남대문로9길 24",
    "total_amount": 3564000,
    "visit_count": 16,
    "lat": "37.5671219516984",
    "lng": "126.981119738036"
  },
  {
    "raw_loc": "창고43 무교점(중구 무교로21)",
    "name": "창고43 무교점",
    "address": "중구 무교로21",
    "total_amount": 3340000,
    "visit_count": 22,
    "lat": "37.56777030873992",
    "lng": "126.97898930097305"
  },
  {
    "raw_loc": "향설주량(서울 중구 다동길 33)",
    "name": "향설주량",
    "address": "서울 중구 다동길 33",
    "total_amount": 157000,
    "visit_count": 1,
    "lat": "37.5679869094223",
    "lng": "126.981130838952"
  },
  {
    "raw_loc": "숙성쑤산 종로본점(서울특별시 종로구 삼일대로19길 16)",
    "name": "숙성쑤산 종로본점",
    "address": "서울특별시 종로구 삼일대로19길 16",
    "total_amount": 129000,
    "visit_count": 1,
    "lat": "37.5696563184585",
    "lng": "126.986757333983"
  },
  {
    "raw_loc": "컨퍼런스하우스달개비 정동점(서울특별시 중구 세종대로21길 15)",
    "name": "컨퍼런스하우스달개비 정동점",
    "address": "서울특별시 중구 세종대로21길 15",
    "total_amount": 6102000,
    "visit_count": 25,
    "lat": "37.56700751210877",
    "lng": "126.97607711480808"
  },
  {
    "raw_loc": "주유별장 광화문점(서울 종로구 종로3길17)",
    "name": "주유별장 광화문점",
    "address": "서울 종로구 종로3길17",
    "total_amount": 115500,
    "visit_count": 1,
    "lat": "37.5705525984893",
    "lng": "126.979076812462"
  },
  {
    "raw_loc": "여의도삼계탕 서울파이낸스센터점(서울 중구 세종대로 136)",
    "name": "여의도삼계탕 서울파이낸스센터점",
    "address": "서울 중구 세종대로 136",
    "total_amount": 406000,
    "visit_count": 3,
    "lat": "37.56842339797618",
    "lng": "126.97825675890313"
  },
  {
    "raw_loc": "서울시청매점(서울 중구 세종대로 110)",
    "name": "서울시청매점",
    "address": "서울 중구 세종대로 110",
    "total_amount": 11127140,
    "visit_count": 49,
    "lat": "37.56682420267543",
    "lng": "126.978652258823"
  },
  {
    "raw_loc": "오징어풍경 무교동점(서울 중구 다동길5)",
    "name": "오징어풍경 무교동점",
    "address": "서울 중구 다동길5",
    "total_amount": 997000,
    "visit_count": 3,
    "lat": "37.5681200190467",
    "lng": "126.979697787969"
  },
  {
    "raw_loc": "참치공방 종각본점(서울 종로구 종로9길8)",
    "name": "참치공방 종각본점",
    "address": "서울 종로구 종로9길8",
    "total_amount": 165000,
    "visit_count": 1,
    "lat": "37.5707155796183",
    "lng": "126.984238525274"
  },
  {
    "raw_loc": "온점 을지로점(서울 중구 을지로 29)",
    "name": "온점 을지로점",
    "address": "서울 중구 을지로 29",
    "total_amount": 4268000,
    "visit_count": 20,
    "lat": "37.5664660151051",
    "lng": "126.981047461974"
  },
  {
    "raw_loc": "도원스타일 서울역점(서울 용산구 청파로378)",
    "name": "도원스타일 서울역점",
    "address": "서울 용산구 청파로378",
    "total_amount": 213000,
    "visit_count": 1,
    "lat": "37.55420255074633",
    "lng": "126.97200477214717"
  },
  {
    "raw_loc": "생어거스틴 광화문파이낸스점(서울 중구 세종대로 136)",
    "name": "생어거스틴 광화문파이낸스점",
    "address": "서울 중구 세종대로 136",
    "total_amount": 1788000,
    "visit_count": 14,
    "lat": "37.56842339797618",
    "lng": "126.97825675890313"
  },
  {
    "raw_loc": "창고43 무교점(서울 중구 무교로 21)",
    "name": "창고43 무교점",
    "address": "서울 중구 무교로 21",
    "total_amount": 2873000,
    "visit_count": 21,
    "lat": "37.56777030873992",
    "lng": "126.97898930097305"
  },
  {
    "raw_loc": "광화문갈비 석촌호수점(서울 송파구 석촌호수로 296)",
    "name": "광화문갈비 석촌호수점",
    "address": "서울 송파구 석촌호수로 296",
    "total_amount": 1909000,
    "visit_count": 6,
    "lat": "37.51142852223295",
    "lng": "127.1077795123136"
  },
  {
    "raw_loc": "금문도 내수동점(서울 종로구 사직로8길42)",
    "name": "금문도 내수동점",
    "address": "서울 종로구 사직로8길42",
    "total_amount": 103000,
    "visit_count": 1,
    "lat": "37.57373554741544",
    "lng": "126.97328908553332"
  },
  {
    "raw_loc": "바른고기정육점 광화문 SFC점(서울특별시 중구 세종대로 136)",
    "name": "바른고기정육점 광화문 SFC점",
    "address": "서울특별시 중구 세종대로 136",
    "total_amount": 20645600,
    "visit_count": 108,
    "lat": "37.56842339797618",
    "lng": "126.97825675890313"
  },
  {
    "raw_loc": "리나스 무교점(서울 중구 무교로 19)",
    "name": "리나스 무교점",
    "address": "서울 중구 무교로 19",
    "total_amount": 7016600,
    "visit_count": 40,
    "lat": "37.567635158577616",
    "lng": "126.97898481126265"
  },
  {
    "raw_loc": "파리크라상 광화문점(서울 종로구 종로1)",
    "name": "파리크라상 광화문점",
    "address": "서울 종로구 종로1",
    "total_amount": 2336600,
    "visit_count": 14,
    "lat": "37.5707974563789",
    "lng": "126.977908555263"
  },
  {
    "raw_loc": "쌀베베 서울시청역 본점(서울 중구 서소문로89-20)",
    "name": "쌀베베 서울시청역 본점",
    "address": "서울 중구 서소문로89-20",
    "total_amount": 46200,
    "visit_count": 1,
    "lat": "37.563249468697",
    "lng": "126.972029683467"
  },
  {
    "raw_loc": "경복궁 서여의도점(서울 영등포구 국회대로70길18)",
    "name": "경복궁 서여의도점",
    "address": "서울 영등포구 국회대로70길18",
    "total_amount": 296000,
    "visit_count": 1,
    "lat": "37.5290203055553",
    "lng": "126.920218319182"
  },
  {
    "raw_loc": "서울시청구내식당(서울 중구 세종대로110)",
    "name": "서울시청구내식당",
    "address": "서울 중구 세종대로110",
    "total_amount": 956000,
    "visit_count": 4,
    "lat": "37.56682420267543",
    "lng": "126.978652258823"
  },
  {
    "raw_loc": "차이(Chai)797 SFC점(서울특별시 중구 세종대로 136)",
    "name": "차이(Chai)797 SFC점",
    "address": "서울특별시 중구 세종대로 136",
    "total_amount": 13611040,
    "visit_count": 77,
    "lat": "37.56842339797618",
    "lng": "126.97825675890313"
  },
  {
    "raw_loc": "멜팅샵 광화문디타워점(서울 종로구 종로3길 17)",
    "name": "멜팅샵 광화문디타워점",
    "address": "서울 종로구 종로3길 17",
    "total_amount": 913000,
    "visit_count": 7,
    "lat": "37.5705525984893",
    "lng": "126.979076812462"
  },
  {
    "raw_loc": "현대옥 노량진점(서울 동작구 만양로14길21)",
    "name": "현대옥 노량진점",
    "address": "서울 동작구 만양로14길21",
    "total_amount": 17000,
    "visit_count": 1,
    "lat": "37.5118506989728",
    "lng": "126.945387177252"
  },
  {
    "raw_loc": "오이스터배(서울 중구 소공로 119)",
    "name": "오이스터배",
    "address": "서울 중구 소공로 119",
    "total_amount": 1163000,
    "visit_count": 3,
    "lat": "37.56469234685201",
    "lng": "126.97811069981492"
  },
  {
    "raw_loc": "블랑제리 더 플라자(서울 중구 소공로 119)",
    "name": "블랑제리 더 플라자",
    "address": "서울 중구 소공로 119",
    "total_amount": 297590,
    "visit_count": 7,
    "lat": "37.56469234685201",
    "lng": "126.97811069981492"
  },
  {
    "raw_loc": "엘앤피코스메틱(서울 강서구 공항대로 516)",
    "name": "엘앤피코스메틱",
    "address": "서울 강서구 공항대로 516",
    "total_amount": 1728000,
    "visit_count": 4,
    "lat": "37.5513526328793",
    "lng": "126.863357469333"
  },
  {
    "raw_loc": "화포식당 노원점(서울 노원구 상계로 72)",
    "name": "화포식당 노원점",
    "address": "서울 노원구 상계로 72",
    "total_amount": 94000,
    "visit_count": 1,
    "lat": "37.6560450650212",
    "lng": "127.063009181865"
  },
  {
    "raw_loc": "필앳홈 스테이크하우스(서울 용산구 한강대로62길45-17)",
    "name": "필앳홈 스테이크하우스",
    "address": "서울 용산구 한강대로62길45-17",
    "total_amount": 211000,
    "visit_count": 1,
    "lat": "37.5326988318652",
    "lng": "126.973904495448"
  },
  {
    "raw_loc": "도우룸 광화문(서울 종로구 세종대로 178)",
    "name": "도우룸 광화문",
    "address": "서울 종로구 세종대로 178",
    "total_amount": 153000,
    "visit_count": 1,
    "lat": "37.57212910870739",
    "lng": "126.9778096791501"
  },
  {
    "raw_loc": "멜로멜로(서울 중구 남대문로5길15)",
    "name": "멜로멜로",
    "address": "서울 중구 남대문로5길15",
    "total_amount": 126000,
    "visit_count": 1,
    "lat": "37.5620543516072",
    "lng": "126.978780385233"
  },
  {
    "raw_loc": "봉피양 마포점(서울 마포구 토정로 308)",
    "name": "봉피양 마포점",
    "address": "서울 마포구 토정로 308",
    "total_amount": 160000,
    "visit_count": 1,
    "lat": "37.54012296227281",
    "lng": "126.94289083716951"
  },
  {
    "raw_loc": "어슬 광화문(서울 종로구 새문안로2길 10)",
    "name": "어슬 광화문",
    "address": "서울 종로구 새문안로2길 10",
    "total_amount": 330000,
    "visit_count": 1,
    "lat": "37.568701442085654",
    "lng": "126.9722268652952"
  },
  {
    "raw_loc": "이스트빌리지 일도씨닭갈비(서울특별시 중구 세종대로 136)",
    "name": "이스트빌리지 일도씨닭갈비",
    "address": "서울특별시 중구 세종대로 136",
    "total_amount": 3564000,
    "visit_count": 42,
    "lat": "37.56842339797618",
    "lng": "126.97825675890313"
  },
  {
    "raw_loc": "추양옥(서울 영등포구 선유로49길2)",
    "name": "추양옥",
    "address": "서울 영등포구 선유로49길2",
    "total_amount": 125000,
    "visit_count": 1,
    "lat": "37.535721325866604",
    "lng": "126.89725775817296"
  },
  {
    "raw_loc": "연길반점(서울 중구 퇴계로 42-2-)",
    "name": "연길반점",
    "address": "서울 중구 퇴계로 42-2-",
    "total_amount": 80000,
    "visit_count": 1,
    "lat": "37.557714941272096",
    "lng": "126.97764758443697"
  },
  {
    "raw_loc": "바스버거 광화문점(서울 중구 다동길 5)",
    "name": "바스버거 광화문점",
    "address": "서울 중구 다동길 5",
    "total_amount": 1335900,
    "visit_count": 4,
    "lat": "37.5681200190467",
    "lng": "126.979697787969"
  },
  {
    "raw_loc": "푸에르코 광화문(서울 중구 무교로 21)",
    "name": "푸에르코 광화문",
    "address": "서울 중구 무교로 21",
    "total_amount": 6486000,
    "visit_count": 28,
    "lat": "37.56777030873992",
    "lng": "126.97898930097305"
  },
  {
    "raw_loc": "오쓰세이로무시(서울 영등포구 국제금융로2길 36)",
    "name": "오쓰세이로무시",
    "address": "서울 영등포구 국제금융로2길 36",
    "total_amount": 782500,
    "visit_count": 3,
    "lat": "37.52362747070912",
    "lng": "126.92379882003587"
  },
  {
    "raw_loc": "천지명(서울 영등포구 은행로3)",
    "name": "천지명",
    "address": "서울 영등포구 은행로3",
    "total_amount": 392000,
    "visit_count": 3,
    "lat": "37.5275170302225",
    "lng": "126.91962145659404"
  },
  {
    "raw_loc": "스패뉴(서울 중구 세종대로82)",
    "name": "스패뉴",
    "address": "서울 중구 세종대로82",
    "total_amount": 880700,
    "visit_count": 7,
    "lat": "37.56339832010651",
    "lng": "126.97707769588148"
  },
  {
    "raw_loc": "청송옥(서울 중구 서소문로11길 14)",
    "name": "청송옥",
    "address": "서울 중구 서소문로11길 14",
    "total_amount": 732000,
    "visit_count": 6,
    "lat": "37.56344432368287",
    "lng": "126.97306073008279"
  },
  {
    "raw_loc": "노모어피자(서울 중구 무교로13)",
    "name": "노모어피자",
    "address": "서울 중구 무교로13",
    "total_amount": 293600,
    "visit_count": 1,
    "lat": "37.56714862610981",
    "lng": "126.97901437762353"
  },
  {
    "raw_loc": "목포세발낙지(서울 중구 남대문로9길 20)",
    "name": "목포세발낙지",
    "address": "서울 중구 남대문로9길 20",
    "total_amount": 5944000,
    "visit_count": 31,
    "lat": "37.56683457715887",
    "lng": "126.98139146796773"
  },
  {
    "raw_loc": "곰국시집(서울 중구 명동10길 19-3)",
    "name": "곰국시집",
    "address": "서울 중구 명동10길 19-3",
    "total_amount": 1443900,
    "visit_count": 6,
    "lat": "37.5630663001855",
    "lng": "126.98561420138171"
  },
  {
    "raw_loc": "대가(서울 중구 을지로1길 15)",
    "name": "대가",
    "address": "서울 중구 을지로1길 15",
    "total_amount": 1073500,
    "visit_count": 8,
    "lat": "37.56679465838182",
    "lng": "126.97972191769023"
  },
  {
    "raw_loc": "송원 스키야키(서울 중구 세종대로18길 20)",
    "name": "송원 스키야키",
    "address": "서울 중구 세종대로18길 20",
    "total_amount": 60000,
    "visit_count": 1,
    "lat": "37.56366613869364",
    "lng": "126.97825474602402"
  },
  {
    "raw_loc": "고려보쌈(서울 중구 세종대로20길 23)",
    "name": "고려보쌈",
    "address": "서울 중구 세종대로20길 23",
    "total_amount": 469000,
    "visit_count": 3,
    "lat": "37.56715217903943",
    "lng": "126.97872913514755"
  },
  {
    "raw_loc": "신가원설렁탕(서울 중구 을지로1길 10)",
    "name": "신가원설렁탕",
    "address": "서울 중구 을지로1길 10",
    "total_amount": 1081000,
    "visit_count": 12,
    "lat": "37.566537914563405",
    "lng": "126.9799562908653"
  },
  {
    "raw_loc": "무교주가 제일제면소(서울 중구 무교로28)",
    "name": "무교주가 제일제면소",
    "address": "서울 중구 무교로28",
    "total_amount": 113000,
    "visit_count": 1,
    "lat": "37.5684155064641",
    "lng": "126.979471321818"
  },
  {
    "raw_loc": "이비스 앰배서더 명동 라따블(서울 중구 남대문로 78)",
    "name": "이비스 앰배서더 명동 라따블",
    "address": "서울 중구 남대문로 78",
    "total_amount": 270270,
    "visit_count": 1,
    "lat": "37.56418499093799",
    "lng": "126.98300503572362"
  },
  {
    "raw_loc": "롯데쇼핑㈜(서울 중구 남대문로81)",
    "name": "롯데쇼핑㈜",
    "address": "서울 중구 남대문로81",
    "total_amount": 738000,
    "visit_count": 2,
    "lat": "37.564905601247865",
    "lng": "126.98175414832635"
  },
  {
    "raw_loc": "오복수산 광화문점(서울 중구 무교로 21)",
    "name": "오복수산 광화문점",
    "address": "서울 중구 무교로 21",
    "total_amount": 525000,
    "visit_count": 4,
    "lat": "37.56777030873992",
    "lng": "126.97898930097305"
  },
  {
    "raw_loc": "이스트빌리지서울 광화문점(서울 중구 세종대로 136)",
    "name": "이스트빌리지서울 광화문점",
    "address": "서울 중구 세종대로 136",
    "total_amount": 179000,
    "visit_count": 1,
    "lat": "37.56842339797618",
    "lng": "126.97825675890313"
  },
  {
    "raw_loc": "신안촌(서울 종로구 사직로12길 8)",
    "name": "신안촌",
    "address": "서울 종로구 사직로12길 8",
    "total_amount": 275000,
    "visit_count": 1,
    "lat": "37.57561805535909",
    "lng": "126.9708749065259"
  },
  {
    "raw_loc": "르브와 종로점(서울 종로구 우정국로2길 42)",
    "name": "르브와 종로점",
    "address": "서울 종로구 우정국로2길 42",
    "total_amount": 452400,
    "visit_count": 1,
    "lat": "37.569447127190855",
    "lng": "126.98539790462769"
  },
  {
    "raw_loc": "백미당 을지로점(서울 중구 남대문로9길 24)",
    "name": "백미당 을지로점",
    "address": "서울 중구 남대문로9길 24",
    "total_amount": 197100,
    "visit_count": 1,
    "lat": "37.5671219516984",
    "lng": "126.981119738036"
  },
  {
    "raw_loc": "푸에르코(서울 중구 무교로 21)",
    "name": "푸에르코",
    "address": "서울 중구 무교로 21",
    "total_amount": 1395000,
    "visit_count": 7,
    "lat": "37.56777030873992",
    "lng": "126.97898930097305"
  },
  {
    "raw_loc": "코끼리베이글(서울 종로구 인사동길 35-3)",
    "name": "코끼리베이글",
    "address": "서울 종로구 인사동길 35-3",
    "total_amount": 181800,
    "visit_count": 1,
    "lat": "37.5735655611528",
    "lng": "126.985277107722"
  },
  {
    "raw_loc": "열빈(서울 중구 세종대로 21길 22)",
    "name": "열빈",
    "address": "서울 중구 세종대로 21길 22",
    "total_amount": 380000,
    "visit_count": 1,
    "lat": "37.5676291925203",
    "lng": "126.97604409037"
  },
  {
    "raw_loc": "모모야광화문점(서울 중구 세종대로 136)",
    "name": "모모야광화문점",
    "address": "서울 중구 세종대로 136",
    "total_amount": 592000,
    "visit_count": 5,
    "lat": "37.56842339797618",
    "lng": "126.97825675890313"
  },
  {
    "raw_loc": "전북집(서울 중구 남대문로1길 30-5)",
    "name": "전북집",
    "address": "서울 중구 남대문로1길 30-5",
    "total_amount": 2017000,
    "visit_count": 8,
    "lat": "37.56250285934013",
    "lng": "126.97775594256724"
  },
  {
    "raw_loc": "노야(서울 중구 세종대로 136)",
    "name": "노야",
    "address": "서울 중구 세종대로 136",
    "total_amount": 625600,
    "visit_count": 3,
    "lat": "37.56842339797618",
    "lng": "126.97825675890313"
  },
  {
    "raw_loc": "리에제와플(서울 중구 덕수궁길 5)",
    "name": "리에제와플",
    "address": "서울 중구 덕수궁길 5",
    "total_amount": 253000,
    "visit_count": 1,
    "lat": "37.5647929393394",
    "lng": "126.976452473606"
  },
  {
    "raw_loc": "쿠키앤클레이(서울 종로구 삼일대로437)",
    "name": "쿠키앤클레이",
    "address": "서울 종로구 삼일대로437",
    "total_amount": 200000,
    "visit_count": 1,
    "lat": "37.5735234497186",
    "lng": "126.987303408663"
  },
  {
    "raw_loc": "만복림(서울 중구 무교로 17-17)",
    "name": "만복림",
    "address": "서울 중구 무교로 17-17",
    "total_amount": 2193000,
    "visit_count": 14,
    "lat": "37.5674206993694",
    "lng": "126.978860360896"
  },
  {
    "raw_loc": "우영외식산업(서울 중구 세종대로 135)",
    "name": "우영외식산업",
    "address": "서울 중구 세종대로 135",
    "total_amount": 50000,
    "visit_count": 1,
    "lat": "37.56813837281585",
    "lng": "126.97663139666076"
  },
  {
    "raw_loc": "맘스터치 마포구청역점(서울 마포구 월드컵로 190)",
    "name": "맘스터치 마포구청역점",
    "address": "서울 마포구 월드컵로 190",
    "total_amount": 306000,
    "visit_count": 1,
    "lat": "37.564197948473605",
    "lng": "126.90327414316631"
  },
  {
    "raw_loc": "쭈담 시청북창점(중구 세종대로18길 16-5)",
    "name": "쭈담 시청북창점",
    "address": "중구 세종대로18길 16-5",
    "total_amount": 320000,
    "visit_count": 4,
    "lat": "37.5635895556731",
    "lng": "126.978263823137"
  },
  {
    "raw_loc": "서울시청 카페테리아 마루(중구 서소문로 124)",
    "name": "서울시청 카페테리아 마루",
    "address": "중구 서소문로 124",
    "total_amount": 3383000,
    "visit_count": 110,
    "lat": "37.5631060222994",
    "lng": "126.97522155241"
  },
  {
    "raw_loc": "멘무샤  시청점(중구 세종대로18길 20-2)",
    "name": "멘무샤  시청점",
    "address": "중구 세종대로18길 20-2",
    "total_amount": 70000,
    "visit_count": 1,
    "lat": "37.563679661968536",
    "lng": "126.97830001641694"
  },
  {
    "raw_loc": "(주)지앤비후르츠(마포구 독막로 250)",
    "name": "(주)지앤비후르츠",
    "address": "마포구 독막로 250",
    "total_amount": 1251000,
    "visit_count": 5,
    "lat": "37.5463291251636",
    "lng": "126.941215867896"
  },
  {
    "raw_loc": "복성각(중구 덕수궁길 7)",
    "name": "복성각",
    "address": "중구 덕수궁길 7",
    "total_amount": 13099200,
    "visit_count": 88,
    "lat": "37.56477219266435",
    "lng": "126.97633363330202"
  },
  {
    "raw_loc": "도미노피자 가산점(금천구 가산로 146)",
    "name": "도미노피자 가산점",
    "address": "금천구 가산로 146",
    "total_amount": 85840,
    "visit_count": 1,
    "lat": "37.4783965376928",
    "lng": "126.891035624964"
  },
  {
    "raw_loc": "무교동낙지(중구 덕수궁길 7)",
    "name": "무교동낙지",
    "address": "중구 덕수궁길 7",
    "total_amount": 4778000,
    "visit_count": 64,
    "lat": "37.56477219266435",
    "lng": "126.97633363330202"
  },
  {
    "raw_loc": "애성회관( 중구 남대문로5길 23)",
    "name": "애성회관",
    "address": " 중구 남대문로5길 23",
    "total_amount": 88000,
    "visit_count": 1,
    "lat": "37.562409368174585",
    "lng": "126.97891384153051"
  },
  {
    "raw_loc": "누리옥(중구 남대문로1길 26-6 2층)",
    "name": "누리옥",
    "address": "중구 남대문로1길 26-6 2층",
    "total_amount": 86000,
    "visit_count": 1,
    "lat": "37.5621848033008",
    "lng": "126.97773340042"
  },
  {
    "raw_loc": "광장동 가온 (주(중구 명동길 74)",
    "name": "광장동 가온 (주",
    "address": "중구 명동길 74",
    "total_amount": 96000,
    "visit_count": 1,
    "lat": "37.56318453011765",
    "lng": "126.98735609674071"
  },
  {
    "raw_loc": "전주다대기(중구 세종대로11길 42)",
    "name": "전주다대기",
    "address": "중구 세종대로11길 42",
    "total_amount": 879000,
    "visit_count": 13,
    "lat": "37.5622587424476",
    "lng": "126.9736372618"
  },
  {
    "raw_loc": "고레카레(중구 서소문로 124)",
    "name": "고레카레",
    "address": "중구 서소문로 124",
    "total_amount": 1478500,
    "visit_count": 15,
    "lat": "37.5631060222994",
    "lng": "126.97522155241"
  },
  {
    "raw_loc": "벳남미식 시청직영점(중구 서소문로 115)",
    "name": "벳남미식 시청직영점",
    "address": "중구 서소문로 115",
    "total_amount": 945500,
    "visit_count": 13,
    "lat": "37.56335434904204",
    "lng": "126.97361423867554"
  },
  {
    "raw_loc": "(주)디코레 북창동 순두부 본점(중구 세종대로 78)",
    "name": "(주)디코레 북창동 순두부 본점",
    "address": "중구 세종대로 78",
    "total_amount": 441300,
    "visit_count": 8,
    "lat": "37.563120799136",
    "lng": "126.977005342534"
  },
  {
    "raw_loc": "꺼멍도새기(중구 남대문로5길 49)",
    "name": "꺼멍도새기",
    "address": "중구 남대문로5길 49",
    "total_amount": 1278000,
    "visit_count": 21,
    "lat": "37.563553591769",
    "lng": "126.978680356662"
  },
  {
    "raw_loc": "고담2(중구 세종대로 81)",
    "name": "고담2",
    "address": "중구 세종대로 81",
    "total_amount": 2036500,
    "visit_count": 23,
    "lat": "37.563563976864",
    "lng": "126.976434750726"
  },
  {
    "raw_loc": "한국관(서울 중구 서소문로 115)",
    "name": "한국관",
    "address": "서울 중구 서소문로 115",
    "total_amount": 1295220,
    "visit_count": 9,
    "lat": "37.56335434904204",
    "lng": "126.97361423867554"
  },
  {
    "raw_loc": "전설의 우대갈비(서울특별시 중구 남대문로9길 40)",
    "name": "전설의 우대갈비",
    "address": "서울특별시 중구 남대문로9길 40",
    "total_amount": 5137500,
    "visit_count": 29,
    "lat": "37.5671398445069",
    "lng": "126.980340979131"
  },
  {
    "raw_loc": "정든다락(서울특별시 중구 덕수궁길 9)",
    "name": "정든다락",
    "address": "서울특별시 중구 덕수궁길 9",
    "total_amount": 550000,
    "visit_count": 11,
    "lat": "37.5647964965887",
    "lng": "126.97621930624"
  },
  {
    "raw_loc": "진미칼국수(서울특별시 중구 덕수궁길 7)",
    "name": "진미칼국수",
    "address": "서울특별시 중구 덕수궁길 7",
    "total_amount": 2076000,
    "visit_count": 12,
    "lat": "37.56477219266435",
    "lng": "126.97633363330202"
  },
  {
    "raw_loc": "복성각(서울 중구 덕수궁길 7)",
    "name": "복성각",
    "address": "서울 중구 덕수궁길 7",
    "total_amount": 8915000,
    "visit_count": 56,
    "lat": "37.56477219266435",
    "lng": "126.97633363330202"
  },
  {
    "raw_loc": "쌀베베(서울특별시 중구 서소문로 89-20)",
    "name": "쌀베베",
    "address": "서울특별시 중구 서소문로 89-20",
    "total_amount": 13708890,
    "visit_count": 22,
    "lat": "37.563249468697",
    "lng": "126.972029683467"
  },
  {
    "raw_loc": "속초생태집(서울 중구 북창동 94-20)",
    "name": "속초생태집",
    "address": "서울 중구 북창동 94-20",
    "total_amount": 1368000,
    "visit_count": 15,
    "lat": "37.562021807648",
    "lng": "126.978187313966"
  },
  {
    "raw_loc": "신의주 찹쌀순대(서울 중구 서소문로 128-3)",
    "name": "신의주 찹쌀순대",
    "address": "서울 중구 서소문로 128-3",
    "total_amount": 828000,
    "visit_count": 12,
    "lat": "37.56330521022059",
    "lng": "126.97554632808324"
  },
  {
    "raw_loc": "투썸플레이스 서소문점(서울특별시 중구 서소문로 135)",
    "name": "투썸플레이스 서소문점",
    "address": "서울특별시 중구 서소문로 135",
    "total_amount": 459850,
    "visit_count": 14,
    "lat": "37.563979218368715",
    "lng": "126.97585171068071"
  },
  {
    "raw_loc": "스타벅스 무교로점(서울 중구 무교로 15 1층)",
    "name": "스타벅스 무교로점",
    "address": "서울 중구 무교로 15 1층",
    "total_amount": 30100,
    "visit_count": 1,
    "lat": "37.5672801553634",
    "lng": "126.978923787718"
  },
  {
    "raw_loc": "1992덮밥&짜글이 정동점(중구 정동길 17 1층)",
    "name": "1992덮밥&짜글이 정동점",
    "address": "중구 정동길 17 1층",
    "total_amount": 80000,
    "visit_count": 1,
    "lat": "37.5670765228959",
    "lng": "126.970479800381"
  },
  {
    "raw_loc": "쿠팡(서울 중구 세종대로 39)",
    "name": "쿠팡",
    "address": "서울 중구 세종대로 39",
    "total_amount": 2733020,
    "visit_count": 21,
    "lat": "37.560619885400754",
    "lng": "126.97388910146692"
  },
  {
    "raw_loc": "쌀베베(서울특별시 중구 서소문로 89-20 지하 1층 104호)",
    "name": "쌀베베",
    "address": "서울특별시 중구 서소문로 89-20 지하 1층 104호",
    "total_amount": 160000,
    "visit_count": 2,
    "lat": "37.56320356144046",
    "lng": "126.97221419232235"
  },
  {
    "raw_loc": "우성식당(서울 중구 남대문로1길 26-38)",
    "name": "우성식당",
    "address": "서울 중구 남대문로1길 26-38",
    "total_amount": 998000,
    "visit_count": 7,
    "lat": "35.88021883234169",
    "lng": "128.58604076110737"
  },
  {
    "raw_loc": "호아빈(서울시 중구 서소문로 139)",
    "name": "호아빈",
    "address": "서울시 중구 서소문로 139",
    "total_amount": 224500,
    "visit_count": 3,
    "lat": "37.5641297571291",
    "lng": "126.976208199531"
  },
  {
    "raw_loc": "강남면옥 정동점(서울특별시 종로구 새문안로 38)",
    "name": "강남면옥 정동점",
    "address": "서울특별시 종로구 새문안로 38",
    "total_amount": 591000,
    "visit_count": 8,
    "lat": "37.5683683684395",
    "lng": "126.969759383705"
  },
  {
    "raw_loc": "이화수 전통육개장 정동점(서울특별시 종로구 새문안로 38)",
    "name": "이화수 전통육개장 정동점",
    "address": "서울특별시 종로구 새문안로 38",
    "total_amount": 194500,
    "visit_count": 3,
    "lat": "37.5683683684395",
    "lng": "126.969759383705"
  },
  {
    "raw_loc": "반포식스 덕수궁점(서울 중구 서소문로11길 6-1)",
    "name": "반포식스 덕수궁점",
    "address": "서울 중구 서소문로11길 6-1",
    "total_amount": 2170000,
    "visit_count": 33,
    "lat": "37.5631848452531",
    "lng": "126.973098174586"
  },
  {
    "raw_loc": "지에프에스우물가(서울 중구 세종대로21길 15)",
    "name": "지에프에스우물가",
    "address": "서울 중구 세종대로21길 15",
    "total_amount": 20000,
    "visit_count": 1,
    "lat": "37.56700751210877",
    "lng": "126.97607711480808"
  },
  {
    "raw_loc": "고려삼계탕(서울 중구 서소문로11길 1)",
    "name": "고려삼계탕",
    "address": "서울 중구 서소문로11길 1",
    "total_amount": 15160000,
    "visit_count": 38,
    "lat": "37.5630118104688",
    "lng": "126.972908086346"
  },
  {
    "raw_loc": "주식회사 시청해우리(서울특별시 중구 서소문로 95)",
    "name": "주식회사 시청해우리",
    "address": "서울특별시 중구 서소문로 95",
    "total_amount": 7491000,
    "visit_count": 52,
    "lat": "37.562802497904",
    "lng": "126.971708406646"
  },
  {
    "raw_loc": "주식회사 무와(서울특별시 중구 서소문로 115)",
    "name": "주식회사 무와",
    "address": "서울특별시 중구 서소문로 115",
    "total_amount": 1733000,
    "visit_count": 11,
    "lat": "37.56335434904204",
    "lng": "126.97361423867554"
  },
  {
    "raw_loc": "만족반점(서울특별시 중구 서소문로 134-5)",
    "name": "만족반점",
    "address": "서울특별시 중구 서소문로 134-5",
    "total_amount": 293800,
    "visit_count": 5,
    "lat": "37.5635170629693",
    "lng": "126.976125768917"
  },
  {
    "raw_loc": "브라운돈까스 씨티스퀘어점(서울특별시 중구 서소문로 124)",
    "name": "브라운돈까스 씨티스퀘어점",
    "address": "서울특별시 중구 서소문로 124",
    "total_amount": 580500,
    "visit_count": 10,
    "lat": "37.5631060222994",
    "lng": "126.97522155241"
  },
  {
    "raw_loc": "잼배옥(서울  중구  서소문동)",
    "name": "잼배옥",
    "address": "서울  중구  서소문동",
    "total_amount": 2487000,
    "visit_count": 21,
    "lat": "37.56456211289399",
    "lng": "126.97560817016978"
  },
  {
    "raw_loc": "본도시락 서울시청점(서울특별시 중구 세종대로 66-5)",
    "name": "본도시락 서울시청점",
    "address": "서울특별시 중구 세종대로 66-5",
    "total_amount": 1558500,
    "visit_count": 17,
    "lat": "37.56223778407892",
    "lng": "126.97680867441544"
  },
  {
    "raw_loc": "카페 아이엠티 시청2청사점(서울특별시 중구 서소문로 124)",
    "name": "카페 아이엠티 시청2청사점",
    "address": "서울특별시 중구 서소문로 124",
    "total_amount": 777900,
    "visit_count": 17,
    "lat": "37.5631060222994",
    "lng": "126.97522155241"
  },
  {
    "raw_loc": "더테이블한정식(서울 중구 세종대로 124,)",
    "name": "더테이블한정식",
    "address": "서울 중구 세종대로 124,",
    "total_amount": 3730000,
    "visit_count": 31,
    "lat": "37.567418716091005",
    "lng": "126.97787106803995"
  },
  {
    "raw_loc": "라밥(LABAB)(서울특별시 중구 세종대로 76)",
    "name": "라밥(LABAB)",
    "address": "서울특별시 중구 세종대로 76",
    "total_amount": 337600,
    "visit_count": 5,
    "lat": "37.562847796779955",
    "lng": "126.97700316275125"
  },
  {
    "raw_loc": "교동 전선생(서울  중구  서소문로)",
    "name": "교동 전선생",
    "address": "서울  중구  서소문로",
    "total_amount": 744500,
    "visit_count": 9,
    "lat": "37.56290273485607",
    "lng": "126.97266930626948"
  },
  {
    "raw_loc": "차이(Chai)797 시청점(서울특별시 중구 서소문로 120)",
    "name": "차이(Chai)797 시청점",
    "address": "서울특별시 중구 서소문로 120",
    "total_amount": 8327200,
    "visit_count": 68,
    "lat": "37.56286804397143",
    "lng": "126.97467834524068"
  },
  {
    "raw_loc": "송쉐프 숭례문점(서울특별시 중구 세종대로 39)",
    "name": "송쉐프 숭례문점",
    "address": "서울특별시 중구 세종대로 39",
    "total_amount": 668000,
    "visit_count": 5,
    "lat": "37.560619885400754",
    "lng": "126.97388910146692"
  },
  {
    "raw_loc": "차돌삼합 진대감 시청점(서울특별시 중구 서소문로 101-1)",
    "name": "차돌삼합 진대감 시청점",
    "address": "서울특별시 중구 서소문로 101-1",
    "total_amount": 232000,
    "visit_count": 3,
    "lat": "37.562977434485056",
    "lng": "126.972312747033"
  },
  {
    "raw_loc": "투썸플레이스(서울특별시 중구 세종대로14길 15)",
    "name": "투썸플레이스",
    "address": "서울특별시 중구 세종대로14길 15",
    "total_amount": 83300,
    "visit_count": 4,
    "lat": "37.5629623153964",
    "lng": "126.977480767084"
  },
  {
    "raw_loc": "깐부치킨 북창동점(서울 중구 태평로2가 68-7)",
    "name": "깐부치킨 북창동점",
    "address": "서울 중구 태평로2가 68-7",
    "total_amount": 1167500,
    "visit_count": 8,
    "lat": "37.563120799136",
    "lng": "126.977005342534"
  },
  {
    "raw_loc": "뭉치치( 중구 남대문시장길 17)",
    "name": "뭉치치",
    "address": " 중구 남대문시장길 17",
    "total_amount": 667500,
    "visit_count": 1,
    "lat": "37.56026282550547",
    "lng": "126.97694283972542"
  },
  {
    "raw_loc": "스타벅스 코리아(서울 중구 서소문로 125)",
    "name": "스타벅스 코리아",
    "address": "서울 중구 서소문로 125",
    "total_amount": 400000,
    "visit_count": 2,
    "lat": "37.5636249472712",
    "lng": "126.974989349803"
  },
  {
    "raw_loc": "한암동(서울 중구 정동길 21-15,)",
    "name": "한암동",
    "address": "서울 중구 정동길 21-15,",
    "total_amount": 256150,
    "visit_count": 1,
    "lat": "37.56757309640604",
    "lng": "126.97098330747178"
  },
  {
    "raw_loc": "김명자굴국밥 서소문점(서울특별시 중구 세종대로9길 42)",
    "name": "김명자굴국밥 서소문점",
    "address": "서울특별시 중구 세종대로9길 42",
    "total_amount": 2536000,
    "visit_count": 23,
    "lat": "37.561752429451786",
    "lng": "126.97384909221284"
  },
  {
    "raw_loc": "향촌(서울 중구 서소문로 109-3,)",
    "name": "향촌",
    "address": "서울 중구 서소문로 109-3,",
    "total_amount": 199000,
    "visit_count": 3,
    "lat": "37.5631488413982",
    "lng": "126.973256646539"
  },
  {
    "raw_loc": "대독장 서소문점(서울특별시 중구 세종대로11길 30)",
    "name": "대독장 서소문점",
    "address": "서울특별시 중구 세종대로11길 30",
    "total_amount": 1324800,
    "visit_count": 13,
    "lat": "37.5623453636141",
    "lng": "126.974205413901"
  },
  {
    "raw_loc": "신기소(서울특별시 중구 정동길 2-1)",
    "name": "신기소",
    "address": "서울특별시 중구 정동길 2-1",
    "total_amount": 61000,
    "visit_count": 1,
    "lat": "37.568015985542154",
    "lng": "126.96939617866427"
  },
  {
    "raw_loc": "미자네닭전문점(서울 중구 서소문로 129-1,)",
    "name": "미자네닭전문점",
    "address": "서울 중구 서소문로 129-1,",
    "total_amount": 406000,
    "visit_count": 6,
    "lat": "37.5639565628293",
    "lng": "126.975221270707"
  },
  {
    "raw_loc": "모두(서울특별시 중구 서소문로 109-6)",
    "name": "모두",
    "address": "서울특별시 중구 서소문로 109-6",
    "total_amount": 2012000,
    "visit_count": 25,
    "lat": "37.563237164115",
    "lng": "126.973367536403"
  },
  {
    "raw_loc": "한성(서울 중구 서소문로11길 8)",
    "name": "한성",
    "address": "서울 중구 서소문로11길 8",
    "total_amount": 1720000,
    "visit_count": 18,
    "lat": "37.563260528947",
    "lng": "126.973098147371"
  },
  {
    "raw_loc": "태산(중구 세종대로11길 47)",
    "name": "태산",
    "address": "중구 세종대로11길 47",
    "total_amount": 4213000,
    "visit_count": 31,
    "lat": "37.5619108860795",
    "lng": "126.973318207938"
  },
  {
    "raw_loc": "일품진진수라 광화문점(종로구 종로5길 7)",
    "name": "일품진진수라 광화문점",
    "address": "종로구 종로5길 7",
    "total_amount": 918200,
    "visit_count": 4,
    "lat": "37.5706465551223",
    "lng": "126.980557394456"
  },
  {
    "raw_loc": "더펄 바이 그릴도하(중구 남대문로 55)",
    "name": "더펄 바이 그릴도하",
    "address": "중구 남대문로 55",
    "total_amount": 2321500,
    "visit_count": 16,
    "lat": "37.5624980274105",
    "lng": "126.981046203512"
  },
  {
    "raw_loc": "관호 광화문점(중구 세종대로 135-7)",
    "name": "관호 광화문점",
    "address": "중구 세종대로 135-7",
    "total_amount": 860000,
    "visit_count": 2,
    "lat": "37.568407693013",
    "lng": "126.97624306066"
  },
  {
    "raw_loc": "조조칼국수 시청점(중구 세종대로 11길 27)",
    "name": "조조칼국수 시청점",
    "address": "중구 세종대로 11길 27",
    "total_amount": 316000,
    "visit_count": 3,
    "lat": "37.56214085296248",
    "lng": "126.97427679000269"
  },
  {
    "raw_loc": "창고43시청점(중구 서소문로 120)",
    "name": "창고43시청점",
    "address": "중구 서소문로 120",
    "total_amount": 9745060,
    "visit_count": 71,
    "lat": "37.56286804397143",
    "lng": "126.97467834524068"
  },
  {
    "raw_loc": "(주)뚜리삼(중구 무교동 96번지)",
    "name": "(주)뚜리삼",
    "address": "중구 무교동 96번지",
    "total_amount": 436000,
    "visit_count": 4,
    "lat": "37.5688657442589",
    "lng": "126.978026847197"
  },
  {
    "raw_loc": "차이(Chai)797 시청점(중구 서소문로 120)",
    "name": "차이(Chai)797 시청점",
    "address": "중구 서소문로 120",
    "total_amount": 7592400,
    "visit_count": 56,
    "lat": "37.56286804397143",
    "lng": "126.97467834524068"
  },
  {
    "raw_loc": "애성회관(중구 남대문로5실 23)",
    "name": "애성회관",
    "address": "중구 남대문로5실 23",
    "total_amount": 98000,
    "visit_count": 1,
    "lat": "37.562409368174585",
    "lng": "126.97891384153051"
  },
  {
    "raw_loc": "라마다 호텔&스위트 서울남대문(리에나레스토랑, 중구 칠패로 27)",
    "name": "라마다 호텔&스위트 서울남대문",
    "address": "리에나레스토랑, 중구 칠패로 27",
    "total_amount": 165000,
    "visit_count": 1,
    "lat": "37.56048878084385",
    "lng": "126.97188584385984"
  },
  {
    "raw_loc": "스패뉴시청지점(중구 세종대로 82)",
    "name": "스패뉴시청지점",
    "address": "중구 세종대로 82",
    "total_amount": 679600,
    "visit_count": 7,
    "lat": "37.56339832010651",
    "lng": "126.97707769588148"
  },
  {
    "raw_loc": "브이아이피참치 뉴서울호텔점(중구 세종대로 22길 16)",
    "name": "브이아이피참치 뉴서울호텔점",
    "address": "중구 세종대로 22길 16",
    "total_amount": 406000,
    "visit_count": 4,
    "lat": "37.56801523213501",
    "lng": "126.9781765109669"
  },
  {
    "raw_loc": "장안삼계탕(세종대로18길 8)",
    "name": "장안삼계탕",
    "address": "세종대로18길 8",
    "total_amount": 70000,
    "visit_count": 1,
    "lat": "37.5636867207938",
    "lng": "126.977503186199"
  },
  {
    "raw_loc": "노모어피자 서울시청점(무교로 13)",
    "name": "노모어피자 서울시청점",
    "address": "무교로 13",
    "total_amount": 144000,
    "visit_count": 1,
    "lat": "37.56714862610981",
    "lng": "126.97901437762353"
  },
  {
    "raw_loc": "주식회사 시안컴퍼니(중구 서소문로 116)",
    "name": "주식회사 시안컴퍼니",
    "address": "중구 서소문로 116",
    "total_amount": 615090,
    "visit_count": 12,
    "lat": "37.56273184964519",
    "lng": "126.97401626274653"
  },
  {
    "raw_loc": "배재반점(서울 중구 서소문로 103)",
    "name": "배재반점",
    "address": "서울 중구 서소문로 103",
    "total_amount": 560000,
    "visit_count": 6,
    "lat": "37.56290273485607",
    "lng": "126.97266930626948"
  },
  {
    "raw_loc": "오롯 마포구청역점(서울 중구 남대문로1길 18)",
    "name": "오롯 마포구청역점",
    "address": "서울 중구 남대문로1길 18",
    "total_amount": 33200,
    "visit_count": 1,
    "lat": "37.5619460051343",
    "lng": "126.977553510223"
  },
  {
    "raw_loc": "(주)VIP참치(서울 중구 세종대로135)",
    "name": "(주)VIP참치",
    "address": "서울 중구 세종대로135",
    "total_amount": 240000,
    "visit_count": 1,
    "lat": "37.56813837281585",
    "lng": "126.97663139666076"
  },
  {
    "raw_loc": "하남돼지집 신촌점(서울 마포구 서강로 132)",
    "name": "하남돼지집 신촌점",
    "address": "서울 마포구 서강로 132",
    "total_amount": 193000,
    "visit_count": 1,
    "lat": "37.553845857485065",
    "lng": "126.93547106690897"
  },
  {
    "raw_loc": "(주)서룡(서울 마포구 월드컵북로 361)",
    "name": "(주)서룡",
    "address": "서울 마포구 월드컵북로 361",
    "total_amount": 47000,
    "visit_count": 1,
    "lat": "37.57709888138341",
    "lng": "126.89140138588954"
  },
  {
    "raw_loc": "서울더파크다이닝 (주) 크라운에셋(서울 중구 남대문로7길 19)",
    "name": "서울더파크다이닝 (주) 크라운에셋",
    "address": "서울 중구 남대문로7길 19",
    "total_amount": 280000,
    "visit_count": 1,
    "lat": "37.5638855205458",
    "lng": "126.980790051363"
  },
  {
    "raw_loc": "북창동 소문난쭈꾸미(서울 중구 세종대로14길 34)",
    "name": "북창동 소문난쭈꾸미",
    "address": "서울 중구 세종대로14길 34",
    "total_amount": 106000,
    "visit_count": 1,
    "lat": "37.56271655074188",
    "lng": "126.97859570692495"
  },
  {
    "raw_loc": "VIP참치 을지로점(서울 중구 남대문로10길 28)",
    "name": "VIP참치 을지로점",
    "address": "서울 중구 남대문로10길 28",
    "total_amount": 357000,
    "visit_count": 2,
    "lat": "37.567439559282",
    "lng": "126.984234687918"
  },
  {
    "raw_loc": "백암 박가네 순대국(서울 중구 서소문로 109-10)",
    "name": "백암 박가네 순대국",
    "address": "서울 중구 서소문로 109-10",
    "total_amount": 66000,
    "visit_count": 1,
    "lat": "37.5634344562083",
    "lng": "126.973252017025"
  },
  {
    "raw_loc": "천복(서울 중구 세종대로14길 27-4)",
    "name": "천복",
    "address": "서울 중구 세종대로14길 27-4",
    "total_amount": 1048000,
    "visit_count": 6,
    "lat": "37.5629732791459",
    "lng": "126.978291166524"
  },
  {
    "raw_loc": "컨퍼런스하우스달개비 정동점(중구 세종대로19길 16)",
    "name": "컨퍼런스하우스달개비 정동점",
    "address": "중구 세종대로19길 16",
    "total_amount": 308000,
    "visit_count": 1,
    "lat": "37.5667642080192",
    "lng": "126.97590401119"
  },
  {
    "raw_loc": "바오차이(서울 중구 을지로 100)",
    "name": "바오차이",
    "address": "서울 중구 을지로 100",
    "total_amount": 281000,
    "visit_count": 2,
    "lat": "37.56578945124836",
    "lng": "126.98874901309442"
  },
  {
    "raw_loc": "너구리베이글 천호점(서울 강동구 천호대로 997)",
    "name": "너구리베이글 천호점",
    "address": "서울 강동구 천호대로 997",
    "total_amount": 279000,
    "visit_count": 1,
    "lat": "37.53933985469917",
    "lng": "127.1233323954609"
  },
  {
    "raw_loc": "코바치(서울특별시 송파구 잠실로 209)",
    "name": "코바치",
    "address": "서울특별시 송파구 잠실로 209",
    "total_amount": 138000,
    "visit_count": 1,
    "lat": "37.51378610891105",
    "lng": "127.106165424275"
  },
  {
    "raw_loc": "파리바게뜨 무교점(중구 남대문로9길 40)",
    "name": "파리바게뜨 무교점",
    "address": "중구 남대문로9길 40",
    "total_amount": 2152700,
    "visit_count": 18,
    "lat": "37.5671398445069",
    "lng": "126.980340979131"
  },
  {
    "raw_loc": "서울의 달(서울특별시 중구 세종대로14길 28-6)",
    "name": "서울의 달",
    "address": "서울특별시 중구 세종대로14길 28-6",
    "total_amount": 2725000,
    "visit_count": 13,
    "lat": "37.5624822256462",
    "lng": "126.978234717011"
  },
  {
    "raw_loc": "이테르(서울 중구 남대문로5길 39 지하1층)",
    "name": "이테르",
    "address": "서울 중구 남대문로5길 39 지하1층",
    "total_amount": 237000,
    "visit_count": 1,
    "lat": "37.5632157101453",
    "lng": "126.978636310756"
  },
  {
    "raw_loc": "필운동주(서울특별시 종로구 필운대로 15)",
    "name": "필운동주",
    "address": "서울특별시 종로구 필운대로 15",
    "total_amount": 107000,
    "visit_count": 1,
    "lat": "37.57761334925702",
    "lng": "126.96926319526061"
  },
  {
    "raw_loc": "참숯골(중구 무교로 16)",
    "name": "참숯골",
    "address": "중구 무교로 16",
    "total_amount": 8726100,
    "visit_count": 71,
    "lat": "37.5673199020013",
    "lng": "126.979507843716"
  },
  {
    "raw_loc": "무화 서울(서울특별시 중구 퇴계로63길 10)",
    "name": "무화 서울",
    "address": "서울특별시 중구 퇴계로63길 10",
    "total_amount": 244000,
    "visit_count": 2,
    "lat": "37.5649247110458",
    "lng": "127.008692814958"
  },
  {
    "raw_loc": "디라이프스타일키친(중구 세종대로 136)",
    "name": "디라이프스타일키친",
    "address": "중구 세종대로 136",
    "total_amount": 4838620,
    "visit_count": 31,
    "lat": "37.56842339797618",
    "lng": "126.97825675890313"
  },
  {
    "raw_loc": "아삐에디(서울특별시 종로구 필운대로 14)",
    "name": "아삐에디",
    "address": "서울특별시 종로구 필운대로 14",
    "total_amount": 266000,
    "visit_count": 1,
    "lat": "37.5774449194545",
    "lng": "126.969479489176"
  },
  {
    "raw_loc": "뚝심 센터원점(서울특별시 중구 을지로5길 26)",
    "name": "뚝심 센터원점",
    "address": "서울특별시 중구 을지로5길 26",
    "total_amount": 1059000,
    "visit_count": 4,
    "lat": "37.56758835267922",
    "lng": "126.98523300756631"
  },
  {
    "raw_loc": "몽중헌(서울 중구 을지로5길19)",
    "name": "몽중헌",
    "address": "서울 중구 을지로5길19",
    "total_amount": 446000,
    "visit_count": 1,
    "lat": "37.5669854428328",
    "lng": "126.984126120446"
  },
  {
    "raw_loc": "바닷가수라간(서울 중구 덕수궁길7)",
    "name": "바닷가수라간",
    "address": "서울 중구 덕수궁길7",
    "total_amount": 739000,
    "visit_count": 4,
    "lat": "37.56477219266435",
    "lng": "126.97633363330202"
  },
  {
    "raw_loc": "크리스탈제이드 광화문상하이팰릿점(서울 종로구 율곡로2길7)",
    "name": "크리스탈제이드 광화문상하이팰릿점",
    "address": "서울 종로구 율곡로2길7",
    "total_amount": 790400,
    "visit_count": 4,
    "lat": "37.57494708967333",
    "lng": "126.98108380175455"
  },
  {
    "raw_loc": "팔당반점 서여의도점(서울 영등포구 은행로37)",
    "name": "팔당반점 서여의도점",
    "address": "서울 영등포구 은행로37",
    "total_amount": 690000,
    "visit_count": 3,
    "lat": "37.5295085662581",
    "lng": "126.922806308023"
  },
  {
    "raw_loc": "열빈 광화문점(서울 중구 세종대로21길22)",
    "name": "열빈 광화문점",
    "address": "서울 중구 세종대로21길22",
    "total_amount": 1327000,
    "visit_count": 8,
    "lat": "37.5676291925203",
    "lng": "126.97604409037"
  },
  {
    "raw_loc": "쇼코엘 광화문점(서울 중구 세종대로 136)",
    "name": "쇼코엘 광화문점",
    "address": "서울 중구 세종대로 136",
    "total_amount": 189700,
    "visit_count": 4,
    "lat": "37.56842339797618",
    "lng": "126.97825675890313"
  },
  {
    "raw_loc": "일품당 광화문(서울 종로구 세종대로23길25-1)",
    "name": "일품당 광화문",
    "address": "서울 종로구 세종대로23길25-1",
    "total_amount": 98000,
    "visit_count": 1,
    "lat": "37.57151047629067",
    "lng": "126.97505576366883"
  },
  {
    "raw_loc": "대상해(서울특별시 중구 세종대로 135)",
    "name": "대상해",
    "address": "서울특별시 중구 세종대로 135",
    "total_amount": 13096000,
    "visit_count": 65,
    "lat": "37.56813837281585",
    "lng": "126.97663139666076"
  },
  {
    "raw_loc": "빠르크 정동점(서울 중구 서소문로89-20)",
    "name": "빠르크 정동점",
    "address": "서울 중구 서소문로89-20",
    "total_amount": 306500,
    "visit_count": 3,
    "lat": "37.563249468697",
    "lng": "126.972029683467"
  },
  {
    "raw_loc": "스타벅스 한국프레스센터점(서울 중구 세종대로 124)",
    "name": "스타벅스 한국프레스센터점",
    "address": "서울 중구 세종대로 124",
    "total_amount": 405900,
    "visit_count": 10,
    "lat": "37.567418716091005",
    "lng": "126.97787106803995"
  },
  {
    "raw_loc": "우도일식(서울 중구 세종대로 124)",
    "name": "우도일식",
    "address": "서울 중구 세종대로 124",
    "total_amount": 2244000,
    "visit_count": 20,
    "lat": "37.567418716091005",
    "lng": "126.97787106803995"
  },
  {
    "raw_loc": "서울안심정육 서여의도점(서울 영등포구 국회대로74길10)",
    "name": "서울안심정육 서여의도점",
    "address": "서울 영등포구 국회대로74길10",
    "total_amount": 1867700,
    "visit_count": 6,
    "lat": "37.5302758940529",
    "lng": "126.92095236121571"
  },
  {
    "raw_loc": "동해도 광화문(서울 중구 무교로28)",
    "name": "동해도 광화문",
    "address": "서울 중구 무교로28",
    "total_amount": 877000,
    "visit_count": 5,
    "lat": "37.5684155064641",
    "lng": "126.979471321818"
  },
  {
    "raw_loc": "스시미소(서울 영등포구 국회대로 750)",
    "name": "스시미소",
    "address": "서울 영등포구 국회대로 750",
    "total_amount": 210000,
    "visit_count": 1,
    "lat": "37.5281454436206",
    "lng": "126.916327507802"
  },
  {
    "raw_loc": "노모어피자 서울시청점(서울 중구 무교로 13)",
    "name": "노모어피자 서울시청점",
    "address": "서울 중구 무교로 13",
    "total_amount": 5210500,
    "visit_count": 6,
    "lat": "37.56714862610981",
    "lng": "126.97901437762353"
  },
  {
    "raw_loc": "온센 광화문점(서울 중구 세종대로136)",
    "name": "온센 광화문점",
    "address": "서울 중구 세종대로136",
    "total_amount": 156100,
    "visit_count": 3,
    "lat": "37.56842339797618",
    "lng": "126.97825675890313"
  },
  {
    "raw_loc": "도치피자 광화문(서울 중구 세종대로21길67-2)",
    "name": "도치피자 광화문",
    "address": "서울 중구 세종대로21길67-2",
    "total_amount": 89000,
    "visit_count": 1,
    "lat": "37.5692914197256",
    "lng": "126.975509280916"
  },
  {
    "raw_loc": "중림장(서울 중구 청파로 459-1)",
    "name": "중림장",
    "address": "서울 중구 청파로 459-1",
    "total_amount": 48000,
    "visit_count": 1,
    "lat": "37.56025345426618",
    "lng": "126.96771296267711"
  },
  {
    "raw_loc": "남해바다마차(서울 성북구 한천로78길71)",
    "name": "남해바다마차",
    "address": "서울 성북구 한천로78길71",
    "total_amount": 214000,
    "visit_count": 1,
    "lat": "37.61356972680585",
    "lng": "127.06501203077839"
  },
  {
    "raw_loc": "아크 여의도점(서울 영등포구 국회대로72길11)",
    "name": "아크 여의도점",
    "address": "서울 영등포구 국회대로72길11",
    "total_amount": 917000,
    "visit_count": 8,
    "lat": "37.529894685893034",
    "lng": "126.9208260526319"
  },
  {
    "raw_loc": "스케줄 오스테리아(서울 중구 남대문로 125)",
    "name": "스케줄 오스테리아",
    "address": "서울 중구 남대문로 125",
    "total_amount": 502000,
    "visit_count": 4,
    "lat": "37.56835018870832",
    "lng": "126.98227965500884"
  },
  {
    "raw_loc": "곰국시집(서울 중구 무교로 24)",
    "name": "곰국시집",
    "address": "서울 중구 무교로 24",
    "total_amount": 14638100,
    "visit_count": 116,
    "lat": "37.5680523955613",
    "lng": "126.9794159571831"
  },
  {
    "raw_loc": "쥬에(서울 용산구 독서당로 124-7)",
    "name": "쥬에",
    "address": "서울 용산구 독서당로 124-7",
    "total_amount": 410000,
    "visit_count": 1,
    "lat": "37.53747272043",
    "lng": "127.012808148468"
  },
  {
    "raw_loc": "서울관광재단 플라자 굿즈샵(서울 종로구 청계천로 85)",
    "name": "서울관광재단 플라자 굿즈샵",
    "address": "서울 종로구 청계천로 85",
    "total_amount": 3303000,
    "visit_count": 11,
    "lat": "37.56862742521865",
    "lng": "126.98715256074797"
  },
  {
    "raw_loc": "강가 무교점(서울 중구 세종대로 136)",
    "name": "강가 무교점",
    "address": "서울 중구 세종대로 136",
    "total_amount": 501800,
    "visit_count": 4,
    "lat": "37.56842339797618",
    "lng": "126.97825675890313"
  },
  {
    "raw_loc": "우일뭉티기(서울 중구 남대문로9길16)",
    "name": "우일뭉티기",
    "address": "서울 중구 남대문로9길16",
    "total_amount": 203000,
    "visit_count": 1,
    "lat": "37.5668364040155",
    "lng": "126.981549934334"
  },
  {
    "raw_loc": "귀한족발 경복궁역점(서울 종로구 자하문로2길7)",
    "name": "귀한족발 경복궁역점",
    "address": "서울 종로구 자하문로2길7",
    "total_amount": 68000,
    "visit_count": 1,
    "lat": "37.5765916666851",
    "lng": "126.973140898402"
  },
  {
    "raw_loc": "델리카한스(서울 중구 을지로30)",
    "name": "델리카한스",
    "address": "서울 중구 을지로30",
    "total_amount": 114600,
    "visit_count": 2,
    "lat": "37.56538301228365",
    "lng": "126.98101264795298"
  },
  {
    "raw_loc": "스타벅스 무교로점(서울 중구 무교로 15)",
    "name": "스타벅스 무교로점",
    "address": "서울 중구 무교로 15",
    "total_amount": 1459200,
    "visit_count": 19,
    "lat": "37.5672765505719",
    "lng": "126.978919261084"
  },
  {
    "raw_loc": "호아빈 서울시청점(서울 중구 서소문로 139)",
    "name": "호아빈 서울시청점",
    "address": "서울 중구 서소문로 139",
    "total_amount": 26000,
    "visit_count": 1,
    "lat": "37.5641297571291",
    "lng": "126.976208199531"
  },
  {
    "raw_loc": "DDP디자인스토어(서울 중구 을지로 281)",
    "name": "DDP디자인스토어",
    "address": "서울 중구 을지로 281",
    "total_amount": 1986800,
    "visit_count": 10,
    "lat": "37.5671843130818",
    "lng": "127.009911013917"
  },
  {
    "raw_loc": "한식당 가람(서울 송파구 올림픽로43길88)",
    "name": "한식당 가람",
    "address": "서울 송파구 올림픽로43길88",
    "total_amount": 22000,
    "visit_count": 1,
    "lat": "37.526200614508994",
    "lng": "127.10761409822122"
  },
  {
    "raw_loc": "맥도날드 서울시청점(서울 중구 남대문로9길 51)",
    "name": "맥도날드 서울시청점",
    "address": "서울 중구 남대문로9길 51",
    "total_amount": 72900,
    "visit_count": 3,
    "lat": "37.5668369438027",
    "lng": "126.979367619692"
  },
  {
    "raw_loc": "가배도 시청점(서울 중구 세종대로 79)",
    "name": "가배도 시청점",
    "address": "서울 중구 세종대로 79",
    "total_amount": 214300,
    "visit_count": 5,
    "lat": "37.5634315063944",
    "lng": "126.976314815893"
  },
  {
    "raw_loc": "조앤더주스 현대아울렛 동대문점(서울 중구 장충단로13길 20)",
    "name": "조앤더주스 현대아울렛 동대문점",
    "address": "서울 중구 장충단로13길 20",
    "total_amount": 400000,
    "visit_count": 1,
    "lat": "37.56872428046827",
    "lng": "127.00768809872345"
  },
  {
    "raw_loc": "명인설렁탕 노량진점(서울 동작구 노량진로8길43)",
    "name": "명인설렁탕 노량진점",
    "address": "서울 동작구 노량진로8길43",
    "total_amount": 60000,
    "visit_count": 1,
    "lat": "37.512474936196895",
    "lng": "126.93777904969318"
  },
  {
    "raw_loc": "서울시청신매점(서울  중구  세종대로  110)",
    "name": "서울시청신매점",
    "address": "서울  중구  세종대로  110",
    "total_amount": 17313620,
    "visit_count": 24,
    "lat": "37.56682420267543",
    "lng": "126.978652258823"
  },
  {
    "raw_loc": "뚜레쥬르 무교점(서울특별시 중구 남대문로9길 40)",
    "name": "뚜레쥬르 무교점",
    "address": "서울특별시 중구 남대문로9길 40",
    "total_amount": 3891490,
    "visit_count": 27,
    "lat": "37.5671398445069",
    "lng": "126.980340979131"
  },
  {
    "raw_loc": "광화문면옥(서울특별시 종로구 새문안로 92)",
    "name": "광화문면옥",
    "address": "서울특별시 종로구 새문안로 92",
    "total_amount": 80000,
    "visit_count": 1,
    "lat": "37.56969944443343",
    "lng": "126.97490808230633"
  },
  {
    "raw_loc": "붓처스컷 광화문점(서울 중구 세종대로 136,)",
    "name": "붓처스컷 광화문점",
    "address": "서울 중구 세종대로 136,",
    "total_amount": 4392000,
    "visit_count": 27,
    "lat": "37.56842339797618",
    "lng": "126.97825675890313"
  },
  {
    "raw_loc": "주식회사 초류향(서울 중구 다동길 24-10)",
    "name": "주식회사 초류향",
    "address": "서울 중구 다동길 24-10",
    "total_amount": 5949500,
    "visit_count": 39,
    "lat": "37.5674786354639",
    "lng": "126.980440498664"
  },
  {
    "raw_loc": "고우가광화문(서울특별시 중구 세종대로 136)",
    "name": "고우가광화문",
    "address": "서울특별시 중구 세종대로 136",
    "total_amount": 12515000,
    "visit_count": 69,
    "lat": "37.56842339797618",
    "lng": "126.97825675890313"
  },
  {
    "raw_loc": "주식회사 멜로멜로(서울특별시 중구 남대문로5길 15)",
    "name": "주식회사 멜로멜로",
    "address": "서울특별시 중구 남대문로5길 15",
    "total_amount": 1575450,
    "visit_count": 10,
    "lat": "37.5620543516072",
    "lng": "126.978780385233"
  },